stop_id,stop_code,stop_name,stop_desc,stop_lat,stop_lon,zone_id,stop_url,location_type,parent_station,stop_timezone,wheelchair_boarding
3,1268,OCEAN NB & PICO FS,1900 OCEAN AVE & SEAVIEW TER,34.0080910,-118.4909300,,,,,,0
4,1020,4TH NB & SANTA MONICA NS,1400 4TH ST & SANTA MONICA BLVD,34.0163870,-118.4950740,,,,,,0
5,1413,SANTA MONICA EB & 6TH NS,600 SANTA MONICA BLVD & 6TH ST,34.0178850,-118.4933320,,,,,,0
6,2001,SANTA MONICA EB & CENTINELA FS,12400 SANTA MONICA BLVD & CENTINELA AVE,34.0386310,-118.4675140,,,,,,0
7,2002,SAWTELLE SB & SANTA MONICA NS,1600 SAWTELLE BLVD & SANTA MONICA BLVD,34.0465230,-118.4484900,,,,,,0
8,2003,UCLA TERMINAL,500 UNNAMED ST & WESTHOLME AVE,34.0711410,-118.4384200,,,,,,0
11,2004,SAWTELLE NB & SANTA MONICA FS,1600 SAWTELLE BLVD & SANTA MONICA BLVD,34.0466570,-118.4485120,,,,,,0
13,1070,4TH SB & SANTA MONICA FS,1300 4TH ST & SANTA MONICA BLVD,34.0162440,-118.4950510,,,,,,0
15,1235,MAIN SB & PICO NS,1800 MAIN ST & PICO BLVD,34.0079760,-118.4897950,,,,,,0
20,1333,PICO EB & 4TH FS,400 PICO BLVD & 4TH ST,34.0096900,-118.4870070,,,,,,0
21,1000,4TH NB & COLORADO FS (Downtown SM Station),1500 4TH ST & COLORADO AVE,34.0139580,-118.4922310,,,,,,0
22,1155,BROADWAY WB & 4TH FS,400 BROADWAY & 4TH ST,34.0148500,-118.4940010,,,,,,0
26,2005,WILSHIRE EB & BUNDY NS,12100 WILSHIRE BLVD & S BUNDY DR,34.0439910,-118.4675040,,,,,,0
28,2006,WILSHIRE EB & BONSALL FS,11300 WILSHIRE BLVD & BONSALLE AVE,34.0544050,-118.4551630,,,,,,0
29,2007,VA HOSPITAL EB & BONSALL FS,11300 DOWLEN DR E & HADLEY LN,34.0534950,-118.4533060,,,,,,0
30,2008,VA HOSPITAL WB & BONSALL NS,11300 DOWLEN DR E & BONSALLE AVE,34.0532260,-118.4538830,,,,,,0
34,1090,4TH SB & SANTA MONICA PLACE (Downtown SM Station),1500 4TH ST & UNNAMED ST,34.0140740,-118.4925150,,,,,,0
38,2010,AVIATION/LAX STATION,11600 UNNAMED ST,33.9294980,-118.3762520,,,,,,0
41,2648,LINCOLN NB & WASHINGTON BL (VEN) FS,4000 LINCOLN BLVD & WASHINGTON BLVD,33.9905900,-118.4478580,,,,,,0
42,1201,LINCOLN NB & OCEAN PARK NS,2600 LINCOLN BLVD & OCEAN PARK BLVD,34.0069330,-118.4761920,,,,,,0
43,1146,ARIZONA EB & 5TH NS,500 ARIZONA AVE & 5TH ST,34.0184260,-118.4958640,,,,,,0
44,1040,4TH NB & WILSHIRE NS,1200 4TH ST & WILSHIRE BLVD,34.0190840,-118.4982660,,,,,,0
45,1241,MONTANA EB & 20TH NS,2000 MONTANA AVE & 20TH ST,34.0366550,-118.4896480,,,,,,0
46,2012,SAN VICENTE EB & BARRINGTON NS,11600 SAN VICENTE BLVD & S BARRINGTON AVE,34.0534960,-118.4655280,,,,,,0
47,2013,SAN VICENTE WB & BARRINGTON NS,11600 SAN VICENTE BLVD & S BARRINGTON AVE,34.0537550,-118.4656380,,,,,,0
48,1253,MONTANA WB & 20TH NS,MONTANA AVE & 20TH ST,34.0366720,-118.4897680,,,,,,0
50,1050,4TH SB & WILSHIRE FS,1200 4TH ST & WILSHIRE BLVD,34.0187360,-118.4980030,,,,,,0
51,1209,LINCOLN SB & OCEAN PARK FS,2600 LINCOLN BLVD & COPELAND CT,34.0064330,-118.4757000,,,,,,0
52,2014,LINCOLN SB & WASHINGTON BL (VEN) FS,4000 LINCOLN BLVD & WASHINGTON BLVD,33.9902320,-118.4476710,,,,,,0
53,2015,MANCHESTER EB & LINCOLN FS,7200 W MANCHESTER AVE & UNNAMED ST,33.9596720,-118.4185200,,,,,,0
56,2016,SAN VICENTE EB & 26TH FS,13000 SAN VICENTE BLVD & 26TH ST,34.0483190,-118.4916190,,,,,,0
58,2017,OLYMPIC EB & SAWTELLE FS,11300 W OLYMPIC BLVD & SAWTELLE BLVD,34.0383540,-118.4408690,,,,,,0
59,2018,OLYMPIC EB & WESTWOOD FS,10900 W OLYMPIC BLVD & WESTWOOD BLVD,34.0439670,-118.4315720,,,,,,0
60,2019,CONSTELLATION EB & AVE OF STARS FS,10200 CONSTELLATION BLVD & AVENUE OF THE STARS,34.0587740,-118.4156740,,,,,,0
62,2021,PICO EB & ROBERTSON FS,8800 W PICO BLVD & UNNAMED ST,34.0546780,-118.3834080,,,,,,0
63,2022,RIMPAU TERMINAL,4646 UNNAMED ST,34.0480830,-118.3379180,,,,,,0
65,2023,PICO WB & ROBERTSON FS,8800 W PICO BLVD & S ROBERTSON BLVD,34.0548930,-118.3840740,,,,,,0
66,2024,PICO WB & ELM NS,9400 W PICO BLVD & REXFORD DR,34.0553130,-118.3948900,,,,,,0
67,2025,CONSTELLATION WB & AVE OF STARS FS,10200 CONSTELLATION BLVD & AVENUE OF THE STARS,34.0584070,-118.4163400,,,,,,0
68,2026,OLYMPIC WB & WESTWOOD FS,10900 W OLYMPIC BLVD & WESTWOOD BLVD,34.0438410,-118.4318990,,,,,,0
70,2027,SAWTELLE NB & OLYMPIC FS,2100 SAWTELLE BLVD & W OLYMPIC BLVD,34.0385140,-118.4414480,,,,,,0
72,1353,PICO WB & LINCOLN FS,700 PICO BLVD & 7TH ST,34.0117620,-118.4841540,,,,,,0
73,2028,PICO EB & BUNDY NS,12100 W PICO BLVD & S BUNDY DR,34.0292960,-118.4502350,,,,,,0
74,2029,WESTWOOD SB & PICO NS,2300 WESTWOOD BLVD & W OLYMPIC BLVD,34.0402210,-118.4285980,,,,,,0
75,2030,PICO WB & WESTWOOD NS,10900 W PICO BLVD & WESTWOOD BLVD,34.0401760,-118.4284230,,,,,,0
76,2031,PICO WB & BUNDY NS,12000 W PICO BLVD & S BUNDY DR,34.0294750,-118.4501150,,,,,,0
79,1156,BROADWAY WB & 6TH FS,600 BROADWAY & 6TH ST,34.0162220,-118.4923130,,,,,,0
86,2032,WESTWOOD SB & WILSHIRE FS,1200 WESTWOOD BLVD & WILSHIRE BLVD,34.0585810,-118.4438430,,,,,,0
94,2033,ENTRADA WB & PACIFIC COAST HWY NS,100 ENTRADA DR & PACIFIC COAST HWY,34.0279230,-118.5187770,,,,,,0
95,2649,SUNSET WB & VIA DE LA PAZ FS,15400 W SUNSET BLVD & VIA DE LA PAZ,34.0480920,-118.5272150,,,,,,0
98,2651,SUNSET EB & VIA DE LA PAZ NS,15400 W SUNSET BLVD & VIA DE LA PAZ,34.0480210,-118.5272260,,,,,,0
99,2034,WEST CHANNEL EB & PACIFIC COAST FS,100 W CHANNEL RD & BORGOS PL,34.0286390,-118.5187240,,,,,,0
103,1266,OCEAN NB & BROADWAY NS,1500 OCEAN AVE & BROADWAY,34.0126990,-118.4963840,,,,,,0
104,1374,SANTA MONICA EB & 3RD FS,300 SANTA MONICA BLVD & 3RD ST,34.0158760,-118.4956500,,,,,,0
106,2035,OLIVE NB & VENICE NS,1600 S OLIVE ST & VENICE BLVD,34.0349600,-118.2654880,,,,,,0
110,2037,FLOWER SB & 4TH NS,400 W 4TH ST & S FLOWER ST,34.0528960,-118.2549060,,,,,,0
111,2038,GRAND SB & VENICE NS,1500 S GRAND AVE & UNNAMED ST,34.0358100,-118.2663380,,,,,,0
116,1004,14TH NB & COLORADO NS,1600 14TH ST & COLORADO AVE,34.0214100,-118.4824210,,,,,,0
117,1012,14TH NB & SANTA MONICA FS,1300 14TH ST & SANTA MONICA BLVD,34.0243490,-118.4858540,,,,,,0
118,1239,MONTANA EB & 17TH FS,1700 MONTANA AVE & 17TH ST,34.0346370,-118.4921200,,,,,,0
119,1028,20TH SB & SANTA MONICA FS,1300 20TH ST & SANTA MONICA BLVD,34.0283760,-118.4797870,,,,,,0
120,1027,20TH SB & PICO FS,1900 20TH ST & PICO BLVD,34.0191580,-118.4693260,,,,,,0
123,2039,SEPULVEDA SB & NATIONAL FS,3000 S SEPULVEDA BLVD & NATIONAL BLVD,34.0269700,-118.4284220,,,,,,0
125,2652,VENICE EB & BAGLEY FS,9400 VENICE BLVD & BAGLEY AVE,34.0255710,-118.3947110,,,,,,0
126,2040,VENICE WB & BAGLEY NS,9400 VENICE BLVD & BAGLEY AVE,34.0256250,-118.3951140,,,,,,0
128,2041,NATIONAL EB & SEPULVEDA FS,11200 NATIONAL BLVD & S SEPULVEDA BLVD,34.0273990,-118.4284120,,,,,,0
131,2043,ROBERTSON SB & AIRDROME NS,1700 S ROBERTSON BLVD & AIRDROME ST,34.0490580,-118.3854320,,,,,,0
132,2044,MOTOR SB & PICO FS,2400 MOTOR AVE & W PICO BLVD,34.0497870,-118.4104880,,,,,,0
133,2653,CENTINELA NB & WASHINGTON BLVD FS,4100 S CENTINELA AVE & W WASHINGTON BLVD,33.9972170,-118.4285900,,,,,,0
135,2046,CENTINELA NB & VENICE NS,3800 S CENTINELA AVE & VENICE BLVD,34.0035560,-118.4333890,,,,,,0
140,2048,BARRINGTON SB & SUNSET FS,100 S BARRINGTON AVE & BARRINGTON CT,34.0647910,-118.4696570,,,,,,0
141,2049,WILSHIRE WB & BUNDY NS,12000 WILSHIRE BLVD & PRIVATE RD,34.0442230,-118.4673960,,,,,,0
149,1382,SANTA MONICA EB & YALE FS,2900 SANTA MONICA BLVD & STANFORD ST,34.0356640,-118.4712830,,,,,,0
150,2051,SANTA MONICA EB & WESTGATE NS,11800 SANTA MONICA BLVD & S WESTGATE AVE,34.0422940,-118.4592520,,,,,,0
151,2052,SANTA MONICA EB & BUNDY NS,12000 SANTA MONICA BLVD & S BUNDY DR,34.0404620,-118.4633290,,,,,,0
154,2054,SANTA MONICA WB & BUNDY NS,12000 SANTA MONICA BLVD & S BUNDY DR,34.0406150,-118.4632310,,,,,,0
155,2055,SANTA MONICA WB & WELLESLEY NS,12100 SANTA MONICA BLVD & WELLESLEY AVE,34.0396270,-118.4654540,,,,,,0
158,2056,PICO WB & MIDVALE FS,10900 W PICO BLVD & MIDVALE AVE,34.0396560,-118.4295900,,,,,,0
159,1189,GEORGINA WB & LINCOLN NS,800 GEORGINA AVE & LINCOLN BLVD,34.0322230,-118.5061660,,,,,,0
161,1244,MONTANA EB & 26TH FS,2600 MONTANA AVE & 26TH ST,34.0415860,-118.4835390,,,,,,0
162,2057,GORHAM WB & SAN VICENTE NS,GORHAM AVE & S BARRINGTON AVE,34.0536820,-118.4665220,,,,,,0
165,1213,LINCOLN SB & WASHINGTON (SM) FS,900 LINCOLN BLVD & WASHINGTON AVE,34.0245970,-118.4974730,,,,,,0
166,2058,VENICE EB & VENICE HIGH SCHOOL MB,13100 VENICE BLVD & ASHWOOD AVE,33.9982360,-118.4441650,,,,,,0
168,2656,MAIN SB & VENICE WAY NS,1600 MAIN ST & VENICE WAY,33.9873990,-118.4707390,,,,,,0
170,2060,WESTWOOD NB & LE CONTE NS,900 WESTWOOD BLVD & LE CONTE AVE,34.0636260,-118.4452270,,,,,,0
178,2063,OLYMPIC EB & BUNDY FS (Bundy Station),12000 W OLYMPIC BLVD & S BUNDY DR,34.0324060,-118.4533390,,,,,,0
179,2064,OLYMPIC WB & BUNDY NS (Bundy Station),12000 W OLYMPIC BLVD & S BUNDY DR,34.0324320,-118.4536340,,,,,,0
184,1281,OCEAN PARK EB & CENTINELA NS,3400 OCEAN PARK BLVD & CENTINELA AVE,34.0230070,-118.4488480,,,,,,0
185,1298,OCEAN PARK WB & CENTINELA FS,3400 OCEAN PARK BLVD & CENTINELA AVE,34.0229180,-118.4491200,,,,,,0
187,1218,MAIN NB & HILL NS,2700 MAIN ST & HILL ST,34.0009820,-118.4825040,,,,,,0
188,1154,BROADWAY WB & 3RD FS,300 BROADWAY & 2ND ST,34.0140520,-118.4949910,,,,,,0
195,1015,17TH NB & PEARL NS,2300 17TH ST & PEARL ST,34.0150860,-118.4695130,,,,,,0
196,2658,VENICE EB & CULVER NS,9000 VENICE BLVD & CULVER BLVD,34.0268260,-118.3925630,,,,,,0
198,2068,HOPE NB & 4TH FS,400 S HOPE ST & UNNAMED ST,34.0528330,-118.2531380,,,,,,0
202,1231,MAIN SB & MARINE NS,2900 MAIN ST & PIER AVE,33.9982480,-118.4798910,,,,,,0
206,2072,PALMS EB & OVERLAND FS,10600 PALMS BLVD & OVERLAND AVE,34.0249030,-118.4112480,,,,,,0
211,2075,VENICE WB & CULVER FS,9000 VENICE BLVD & UNNAMED ST,34.0270050,-118.3927490,,,,,,0
214,2077,NATIONAL EB & KELTON NS,10900 NATIONAL BLVD & KELTON AVE,34.0296600,-118.4226340,,,,,,0
218,2080,CENTINELA SB & VENICE FS,3814 S CENTINELA AVE & VENICE BLVD,34.0033770,-118.4333450,,,,,,0
219,2081,WILSHIRE EB & MC CLELLAN NS,12400 WILSHIRE BLVD & MCCLELLAN DR,34.0422160,-118.4696940,,,,,,0
221,2082,PAUL REVERE MIDDLE SCHOOL,1450 ALLENFORD AVE & BRINKLEY AVE,34.0552560,-118.4955220,,,,,,0
225,2083,WILSHIRE WB & BONSALL NS,11300 WILSHIRE BLVD & BONSALLE AVE,34.0545300,-118.4555890,,,,,,0
226,2955,VENICE WB & MAPLEWOOD FS,13100 VENICE BLVD & ASHWOOD AVE,33.9984060,-118.4442960,,,,,,0
227,1376,SANTA MONICA EB & 4TH FS,400 SANTA MONICA BLVD & 4TH ST,34.0165220,-118.4949980,,,,,,0
228,2084,BUNDY SB & PICO NS,S BUNDY DR & W PICO BLVD,34.0294030,-118.4502680,,,,,,0
229,2085,BUNDY NB & PICO FS,2300 S BUNDY DR & PRIVATE RD,34.0297160,-118.4504870,,,,,,0
230,2086,SANTA MONICA WB & BUNDY FS,12100 SANTA MONICA BLVD & IDAHO AVE,34.0404800,-118.4635360,,,,,,0
231,1284,OCEAN PARK EB & LINCOLN FS,800 OCEAN PARK BLVD & PRIVATE RD,34.0071670,-118.4758110,,,,,,0
232,1301,OCEAN PARK WB & LINCOLN FS,800 OCEAN PARK BLVD & LINCOLN BLVD,34.0067440,-118.4767800,,,,,,0
236,2087,WESTWOOD SB & PICO FS,2400 WESTWOOD BLVD & W PICO BLVD,34.0396310,-118.4281380,,,,,,0
238,2089,PICO EB & WESTWOOD FS,10900 W PICO BLVD & VETERAN AVE,34.0403380,-118.4279210,,,,,,0
239,2090,BEVERLY DR NB & PICO NS,1400 S BEVERLY DR & CASHIO ST,34.0548120,-118.3953040,,,,,,0
240,2091,BUNDY NB & WILSHIRE NS,1200 S BUNDY DR & WILSHIRE BLVD,34.0439460,-118.4672640,,,,,,0
241,2092,BUNDY SB & WILSHIRE NS,1100 S BUNDY DR & PRIVATE RD,34.0440980,-118.4675810,,,,,,0
245,1337,PICO EB & LINCOLN NS,800 PICO BLVD & PRIVATE RD,34.0121660,-118.4830540,,,,,,0
246,2093,ROBERTSON SB & PICO FS,1400 S ROBERTSON BLVD & W PICO BLVD,34.0544190,-118.3838450,,,,,,0
248,2094,PICO EB & BEVERLY NS,9500 W PICO BLVD & UNNAMED ST,34.0552230,-118.3955010,,,,,,0
249,2095,PALMS WB & OVERLAND FS,10700 PALMS BLVD & MOTOR AVE,34.0244640,-118.4120550,,,,,,0
257,2100,OLYMPIC WB & SAWTELLE NS,11300 W OLYMPIC BLVD & SAWTELLE BLVD,34.0382460,-118.4411640,,,,,,0
258,2101,HILGARD SB & WESTHOLME FS,600 HILGARD AVE & WESTHOLME AVE,34.0695120,-118.4389620,,,,,,0
259,1375,SANTA MONICA EB & 3RD NS,300 SANTA MONICA BLVD & 2ND ST,34.0154550,-118.4962820,,,,,,0
261,2102,HILGARD SB & MANNING DR FS,800 HILGARD AVE & WESTHOLME AVE,34.0670060,-118.4393620,,,,,,0
262,1211,LINCOLN SB & PEARL NS,2300 LINCOLN BLVD & PEARL ST,34.0095320,-118.4796230,,,,,,0
265,2103,BUNDY NB & OLYMPIC NS (Bundy Station),2100 S BUNDY DR & W OLYMPIC BLVD,34.0319230,-118.4531090,,,,,,0
268,1037,2ND SB & BROADWAY FS,1500 2ND ST & W PICO BLVD,34.0129790,-118.4948690,,,,,,0
272,2106,ALAMEDA SB & LOS ANGELES NS (Union Station),800 N ALAMEDA ST & N LOS ANGELES ST,34.0565040,-118.2374860,,,,,,0
273,2107,LOS ANGELES SB & ALISO NS,500 N LOS ANGELES ST & ALISO ST,34.0549210,-118.2395500,,,,,,0
274,2108,LOS ANGELES SB & TEMPLE (ALISO)  MB,200 N LOS ANGELES ST & UNNAMED ST,34.0541700,-118.2402380,,,,,,0
275,1273,WILSHIRE WB & 14TH NS,1400 WILSHIRE BLVD & 14TH ST,34.0269030,-118.4888170,,,,,,0
276,1214,WILSHIRE WB & 11TH FS,1100 WILSHIRE BLVD & 11TH ST,34.0243380,-118.4919740,,,,,,0
277,1398,WILSHIRE EB & 11TH NS,1100 WILSHIRE BLVD & 11TH ST,34.0244010,-118.4917230,,,,,,0
278,1399,WILSHIRE EB & 14TH NS,1400 WILSHIRE BLVD & 14TH ST,34.0267060,-118.4888920,,,,,,0
279,1013,14TH NB & WILSHIRE FS,1200 14TH ST & WILSHIRE BLVD,34.0269920,-118.4889590,,,,,,0
283,1054,4TH NB & PICO FS,1800 4TH ST & PICO BLVD,34.0100650,-118.4876620,,,,,,0
286,1348,PICO WB & 4TH FS,319 PICO BLVD & 4TH ST,34.0094650,-118.4875960,,,,,,0
288,1267,OCEAN NB & COLORADO NS,1600 OCEAN AVE & MOOMAT AHIKO WAY,34.0108050,-118.4940780,,,,,,0
289,1269,OCEAN NB & SANTA MONICA NS,1400 OCEAN AVE & SANTA MONICA BLVD,34.0140470,-118.4979470,,,,,,0
290,1305,OCEAN SB & BROADWAY FS,1500 OCEAN AVE & UNNAMED ST,34.0125820,-118.4964050,,,,,,0
291,1306,OCEAN SB & COLORADO NS,1500 OCEAN AVE & UNNAMED ST,34.0115910,-118.4952030,,,,,,0
296,2112,OLYMPIC WB & SEPULVEDA NS,11000 W OLYMPIC BLVD & S SEPULVEDA BLVD,34.0403000,-118.4378400,,,,,,0
297,2113,BUNDY NB & OCEAN PARK NS,2600 S BUNDY DR & OCEAN PARK BLVD,34.0243170,-118.4461450,,,,,,0
298,2114,BUNDY SB & OCEAN PARK FS,2600 S BUNDY DR & PEARL ST,34.0240670,-118.4460460,,,,,,0
299,2115,BUNDY SB & NATIONAL NS,3000 S BUNDY DR & NATIONAL BLVD,34.0200240,-118.4449590,,,,,,0
300,2116,BUNDY NB & NATIONAL FS,3000 S BUNDY DR & NATIONAL BLVD,34.0204270,-118.4449160,,,,,,0
302,2118,LE CONTE WB & TIVERTON FS,10800 LE CONTE AVE & PRIVATE RD,34.0637710,-118.4431430,,,,,,0
303,2119,WESTWOOD SB & WEYBURN NS,1000 WESTWOOD BLVD & WEYBURN AVE,34.0626500,-118.4454980,,,,,,0
304,2120,WESTWOOD SB & LINDBROOK NS,1100 WESTWOOD BLVD & LINDBROOK DR,34.0596530,-118.4448380,,,,,,0
306,2122,WESTWOOD SB & ROCHESTER NS,1400 WESTWOOD BLVD & ROCHESTER AVE,34.0562300,-118.4423870,,,,,,0
307,2123,WESTWOOD SB & OHIO NS,1400 WESTWOOD BLVD & OHIO AVE,34.0541290,-118.4408110,,,,,,0
309,2125,WESTWOOD SB & SANTA MONICA NS,1700 WESTWOOD BLVD & PRIVATE RD,34.0503210,-118.4375520,,,,,,0
310,2126,SANTA MONICA WB & WESTWOOD FS,10800 SANTA MONICA BLVD & WESTWOOD BLVD,34.0497310,-118.4374310,,,,,,0
314,2128,SANTA MONICA WB & SAWTELLE NS,11300 SANTA MONICA BLVD & SAWTELLE BLVD,34.0466220,-118.4480760,,,,,,0
316,2130,SANTA MONICA WB & PURDUE NS,11400 SANTA MONICA BLVD & PURDUE AVE,34.0458930,-118.4506710,,,,,,0
317,2131,SANTA MONICA WB & FEDERAL NS,11500 SANTA MONICA BLVD & FEDERAL AVE,34.0447350,-118.4539320,,,,,,0
318,2132,SANTA MONICA WB & BARRINGTON NS,11600 SANTA MONICA BLVD & S BARRINGTON AVE,34.0438190,-118.4559810,,,,,,0
319,2133,SANTA MONICA WB & WESTGATE NS,11800 SANTA MONICA BLVD & S WESTGATE AVE,34.0424280,-118.4591860,,,,,,0
320,2134,SANTA MONICA WB & BROCKTON NS,11900 SANTA MONICA BLVD & BROCKTON AVE,34.0414940,-118.4612690,,,,,,0
321,1393,SANTA MONICA WB & CENTINELA FS,3200 SANTA MONICA BLVD & WELLESLEY AVE,34.0384150,-118.4680600,,,,,,0
322,1392,SANTA MONICA WB & BERKELEY NS,3000 SANTA MONICA BLVD & BERKELEY ST,34.0371780,-118.4695730,,,,,,0
323,1396,SANTA MONICA WB & YALE FS,2900 SANTA MONICA BLVD & YALE ST,34.0354300,-118.4717520,,,,,,0
324,1389,SANTA MONICA WB & 26TH NS,2600 SANTA MONICA BLVD & 26TH ST,34.0334040,-118.4742670,,,,,,0
325,1394,SANTA MONICA WB & CLOVERFIELD NS,2400 SANTA MONICA BLVD & CLOVERFIELD BLVD,34.0312170,-118.4769790,,,,,,0
326,1388,SANTA MONICA WB & 22ND NS,2200 SANTA MONICA BLVD & 22ND ST,34.0301860,-118.4782420,,,,,,0
327,1387,SANTA MONICA WB & 20TH FS,2000 SANTA MONICA BLVD & 20TH ST,34.0284290,-118.4803870,,,,,,0
330,1384,SANTA MONICA WB & 14TH NS,1400 SANTA MONICA BLVD & 14TH ST,34.0241700,-118.4856680,,,,,,0
331,1383,SANTA MONICA WB & 11TH FS,1100 SANTA MONICA BLVD & 11TH ST,34.0216860,-118.4887490,,,,,,0
332,1395,SANTA MONICA WB & LINCOLN NS,800 SANTA MONICA BLVD & LINCOLN BLVD,34.0196330,-118.4913840,,,,,,0
333,1226,MAIN SB & BAY NS,1900 MAIN ST & BAY ST,34.0071900,-118.4890510,,,,,,0
334,1414,MAIN SB & PACIFIC NS,2200 MAIN ST & PACIFIC ST,34.0056540,-118.4874660,,,,,,0
335,1229,MAIN SB & HOLLISTER NS,2500 MAIN ST & HOLLISTER AVE,34.0043400,-118.4861430,,,,,,0
336,1233,MAIN SB & OCEAN PARK FS,2600 MAIN ST & OCEAN PARK BLVD,34.0020360,-118.4837170,,,,,,0
337,1285,OCEAN PARK EB & MAIN FS,200 OCEAN PARK BLVD & MAIN ST,34.0024210,-118.4836630,,,,,,0
338,1222,MAIN NB & OCEAN PARK FS,2600 MAIN ST & OCEAN PARK BLVD,34.0024110,-118.4839790,,,,,,0
339,1302,OCEAN PARK WB & MAIN NS,200 OCEAN PARK BLVD & MAIN ST,34.0023840,-118.4839030,,,,,,0
340,1228,MAIN SB & HILL NS,2700 MAIN ST & HILL ST,34.0009990,-118.4826340,,,,,,0
341,1225,MAIN SB & ASHLAND NS,2800 MAIN ST & ASHLAND AVE,33.9995520,-118.4812460,,,,,,0
343,2663,MAIN SB & ROSE FS,300 MAIN ST & ROSE AVE,33.9960050,-118.4776720,,,,,,0
344,2664,MAIN SB & SUNSET FS,400 MAIN ST & SUNSET AVE,33.9943340,-118.4762500,,,,,,0
345,2665,MAIN SB & BROOKS FS,800 MAIN ST & BROOKS AVE,33.9921450,-118.4740640,,,,,,0
346,2667,MAIN SB & WESTMINSTER NS,1100 MAIN ST & WESTMINSTER AVE,33.9901070,-118.4726860,,,,,,0
347,1323,PICO EB & 14TH FS,1400 PICO BLVD & 14TH ST,34.0161690,-118.4755590,,,,,,0
348,1324,PICO EB & 16TH FS,1600 PICO BLVD & 14TH ST,34.0172900,-118.4734450,,,,,,0
349,1325,PICO EB & 18TH FS,1800 PRIVATE RD & PICO BLVD,34.0185020,-118.4711900,,,,,,0
350,1326,PICO EB & 20TH NS,2000 PICO BLVD & 20TH ST,34.0193450,-118.4695770,,,,,,0
351,1327,PICO EB & 23RD NS,2300 PICO BLVD & 23RD ST,34.0209250,-118.4665920,,,,,,0
352,1335,PICO EB & CLOVERFIELD FS,2400 PICO BLVD & CLOVERFIELD BLVD,34.0217320,-118.4651210,,,,,,0
353,1328,PICO EB & 26TH FS,2600 PICO BLVD & 27TH ST,34.0234190,-118.4619500,,,,,,0
354,1329,PICO EB & 28TH NS,2800 PICO BLVD & 28TH ST,34.0241720,-118.4605550,,,,,,0
355,1331,PICO EB & 30TH NS,3000 PICO BLVD & 30TH ST,34.0252400,-118.4584740,,,,,,0
356,1332,PICO EB & 33RD NS,3300 PICO BLVD & 33RD ST,34.0267920,-118.4553680,,,,,,0
357,2135,PICO EB & CENTINELA FS,12200 W PICO BLVD & WELLESLEY AVE,34.0282370,-118.4523930,,,,,,0
358,2136,PICO EB & BARRINGTON NS,11700 W PICO BLVD & S BARRINGTON AVE,34.0315210,-118.4457990,,,,,,0
359,2137,PICO WB & BARRINGTON NS,11600 W PICO BLVD & S BARRINGTON AVE,34.0316820,-118.4456790,,,,,,0
360,2668,MAIN NB & WESTMINSTER FS,1100 MAIN ST & CLUBHOUSE AVE,33.9901970,-118.4726200,,,,,,0
361,2669,MAIN NB & ABBOT KINNEY NS,800 MAIN ST & BROOKS AVE,33.9922880,-118.4740540,,,,,,0
362,2670,MAIN NB & SUNSET FS,400 MAIN ST & PALOMA AVE,33.9945760,-118.4763600,,,,,,0
363,2671,MAIN NB & ROSE NS,300 MAIN ST & ROSE AVE,33.9961040,-118.4776390,,,,,,0
364,1215,MAIN NB & ASHLAND NS,2800 MAIN ST & ASHLAND AVE,33.9995260,-118.4810610,,,,,,0
365,1219,MAIN NB & HOLLISTER NS,2400 MAIN ST & HOLLISTER AVE,34.0041080,-118.4856850,,,,,,0
366,1223,MAIN NB & PACIFIC NS,2200 MAIN ST & STRAND ST,34.0056090,-118.4872920,,,,,,0
367,1216,MAIN NB & BAY NS,1900 MAIN ST & BAY ST,34.0071630,-118.4889100,,,,,,0
368,1379,SANTA MONICA EB & LINCOLN NS,800 SANTA MONICA BLVD & LINCOLN BLVD,34.0194720,-118.4914160,,,,,,0
369,1366,SANTA MONICA EB & 11TH NS,1100 SANTA MONICA BLVD & 11TH ST,34.0217310,-118.4885530,,,,,,0
370,1367,SANTA MONICA EB & 14TH NS,1400 SANTA MONICA BLVD & 14TH ST,34.0239910,-118.4857330,,,,,,0
373,1371,SANTA MONICA EB & 20TH FS,2000 SANTA MONICA BLVD & 20TH ST,34.0287070,-118.4798860,,,,,,0
374,1372,SANTA MONICA EB & 22ND FS,2200 SANTA MONICA BLVD & 22ND ST,34.0301410,-118.4781220,,,,,,0
375,1378,SANTA MONICA EB & CLOVERFIELD FS,2400 SANTA MONICA BLVD & CLOVERFIELD BLVD,34.0312080,-118.4768150,,,,,,0
376,1373,SANTA MONICA EB & 26TH NS,2600 SANTA MONICA BLVD & 26TH ST,34.0332250,-118.4743110,,,,,,0
377,2138,NATIONAL EB & BARRINGTON FS,11600 NATIONAL BLVD & S BARRINGTON AVE,34.0227700,-118.4383090,,,,,,0
378,1377,SANTA MONICA EB & BERKELEY NS,3000 SANTA MONICA BLVD & STANFORD ST,34.0369810,-118.4696380,,,,,,0
379,2139,SANTA MONICA EB & WELLESLEY NS,12100 SANTA MONICA BLVD & WELLESLEY AVE,34.0394840,-118.4655410,,,,,,0
380,2140,SANTA MONICA EB & BROCKTON NS,11900 SANTA MONICA BLVD & BROCKTON AVE,34.0413060,-118.4614210,,,,,,0
381,2141,SANTA MONICA EB & BARRINGTON NS,11600 SANTA MONICA BLVD & S BARRINGTON AVE,34.0436670,-118.4560680,,,,,,0
382,2142,SANTA MONICA EB & FEDERAL FS,11500 SANTA MONICA BLVD & FEDERAL AVE,34.0447260,-118.4537240,,,,,,0
384,2143,SANTA MONICA EB & CORINTH NS,11300 SANTA MONICA BLVD & CORINTH AVE,34.0460920,-118.4496350,,,,,,0
385,2144,SANTA MONICA EB & SAWTELLE NS,11300 SANTA MONICA BLVD & SAWTELLE BLVD,34.0464330,-118.4484570,,,,,,0
387,2145,SANTA MONICA EB & SEPULVEDA FS,11100 SANTA MONICA BLVD & S BENTLEY AVE,34.0477550,-118.4436370,,,,,,0
388,2146,SANTA MONICA EB & VETERAN NS,11000 SANTA MONICA BLVD & VETERAN AVE,34.0487430,-118.4401250,,,,,,0
389,2147,WESTWOOD NB & SANTA MONICA FS,1800 WESTWOOD BLVD & PRIVATE RD,34.0504560,-118.4375200,,,,,,0
391,2149,WESTWOOD NB & OLYMPIC FS,2200 WESTWOOD BLVD & W OLYMPIC BLVD,34.0441540,-118.4318890,,,,,,0
392,2150,WESTWOOD NB & LA GRANGE NS,2000 WESTWOOD BLVD & LA GRANGE AVE,34.0466030,-118.4339770,,,,,,0
393,2151,WESTWOOD NB & MISSOURI NS,1900 WESTWOOD BLVD & MISSOURI AVE,34.0481940,-118.4353660,,,,,,0
394,2152,NATIONAL WB & BARRINGTON NS,11600 NATIONAL BLVD & S BARRINGTON AVE,34.0229400,-118.4383430,,,,,,0
396,2154,WESTWOOD NB & OHIO NS,1500 WESTWOOD BLVD & PRIVATE RD,34.0540580,-118.4406150,,,,,,0
397,2155,WESTWOOD NB & ROCHESTER NS,1300 WESTWOOD BLVD & ROCHESTER AVE,34.0560780,-118.4421680,,,,,,0
398,2156,WESTWOOD NB & WILSHIRE NS,1200 WESTWOOD BLVD & WILSHIRE BLVD,34.0587330,-118.4438210,,,,,,0
399,2157,WESTWOOD NB & LINDBROOK NS,1100 WESTWOOD BLVD & LINDBROOK DR,34.0596180,-118.4444890,,,,,,0
400,2158,WILSHIRE EB & VETERAN NS,11000 WILSHIRE BLVD & VETERAN AVE,34.0576900,-118.4478460,,,,,,0
401,2159,WILSHIRE WB & VETERAN NS,11000 WILSHIRE BLVD & UNNAMED ST,34.0578240,-118.4476830,,,,,,0
402,2160,WESTWOOD NB & WEYBURN NS,1000 WESTWOOD BLVD & WEYBURN AVE,34.0625250,-118.4452580,,,,,,0
403,2161,LE CONTE EB & TIVERTON NS,10800 LE CONTE AVE & TIVERTON AVE,34.0636560,-118.4425860,,,,,,0
405,2163,HILGARD NB & MANNING AVE NS,800 HILGARD AVE & MANNING AVE,34.0665140,-118.4395680,,,,,,0
406,2164,HILGARD NB & WESTHOLME NS,600 HILGARD AVE & WESTHOLME AVE,34.0694940,-118.4388640,,,,,,0
407,2165,WILSHIRE WB & SAN VICENTE FS,11600 WILSHIRE BLVD & FEDERAL AVE,34.0506770,-118.4594000,,,,,,0
408,2166,WILSHIRE EB & FEDERAL NS,11600 WILSHIRE BLVD & FEDERAL AVE,34.0506420,-118.4592690,,,,,,0
409,2167,WILSHIRE WB & BARRINGTON FS,11600 WILSHIRE BLVD & S BARRINGTON AVE,34.0493860,-118.4610670,,,,,,0
410,2168,WILSHIRE EB & BARRINGTON NS,11600 WILSHIRE BLVD & S BARRINGTON AVE,34.0493780,-118.4608920,,,,,,0
411,2169,WILSHIRE WB & WESTGATE NS,11800 WILSHIRE BLVD & S WESTGATE AVE,34.0474680,-118.4634850,,,,,,0
412,2170,WILSHIRE EB & WESTGATE NS,11800 WILSHIRE BLVD & S WESTGATE AVE,34.0472980,-118.4635180,,,,,,0
413,2171,WILSHIRE WB & BROCKTON NS,11900 WILSHIRE BLVD & BROCKTON AVE,34.0461330,-118.4650210,,,,,,0
414,2172,WILSHIRE EB & BROCKTON NS,11900 WILSHIRE BLVD & BROCKTON AVE,34.0458730,-118.4651620,,,,,,0
415,2173,WILSHIRE WB & CARMELINA NS,12200 WILSHIRE BLVD & S CARMELINA AVE,34.0418930,-118.4702600,,,,,,0
416,1407,WILSHIRE WB & BERKELEY NS,3100 WILSHIRE BLVD & BERKELEY ST,34.0399120,-118.4726890,,,,,,0
417,1408,WILSHIRE WB & YALE NS,2900 WILSHIRE BLVD & STANFORD ST,34.0383610,-118.4746170,,,,,,0
418,1405,WILSHIRE WB & 26TH NS,2600 WILSHIRE BLVD & 26TH ST,34.0361550,-118.4773720,,,,,,0
419,1404,WILSHIRE WB & 24TH NS,2400 WILSHIRE BLVD & 24TH ST,34.0341470,-118.4798440,,,,,,0
420,1403,WILSHIRE WB & 22ND NS,2200 WILSHIRE BLVD & 22ND ST,34.0328290,-118.4815000,,,,,,0
421,1402,WILSHIRE WB & 20TH NS,2000 WILSHIRE BLVD & 20TH ST,34.0314750,-118.4831870,,,,,,0
422,1031,20TH SB & WILSHIRE FS,1200 20TH ST & WILSHIRE BLVD,34.0312340,-118.4831320,,,,,,0
423,1016,20TH SB & ARIZONA NS,1200 20TH ST & ARIZONA AVE,34.0300910,-118.4817990,,,,,,0
426,1133,WILSHIRE WB & LINCOLN NS,800 WILSHIRE BLVD & LINCOLN BLVD,34.0222490,-118.4945210,,,,,,0
427,1406,WILSHIRE WB & 6TH NS,600 WILSHIRE BLVD & 6TH ST,34.0206980,-118.4964370,,,,,,0
428,1234,LINCOLN SB & WILSHIRE NS,1100 LINCOLN BLVD & WILSHIRE BLVD,34.0222400,-118.4946850,,,,,,0
430,1080,4TH SB & BROADWAY NS,1400 4TH ST & BROADWAY,34.0151370,-118.4937940,,,,,,0
431,1010,4TH NB & BROADWAY NS (Downtown SM Station),1500 4TH ST & BROADWAY,34.0150480,-118.4934780,,,,,,0
432,1030,4TH NB & ARIZONA FS,1200 4TH ST & ARIZONA AVE,34.0179500,-118.4968990,,,,,,0
433,1102,4TH SB & BICKNELL FS,2000 4TH ST & BICKNELL AVE,34.0079030,-118.4855190,,,,,,0
434,1041,4TH NB & BICKNELL NS,2000 4TH ST & BICKNELL AVE,34.0080460,-118.4855520,,,,,,0
436,1048,4TH NB & HOLLISTER NS,2300 4TH ST & HOLLISTER AVE,34.0057860,-118.4833000,,,,,,0
437,1114,4TH SB & OCEAN PARK FS,2600 4TH ST & OCEAN PARK BLVD,34.0038200,-118.4814090,,,,,,0
438,1053,4TH NB & OCEAN PARK FS,2600 4TH ST & OCEAN PARK BLVD,34.0039900,-118.4814640,,,,,,0
441,1224,MAIN NB & PICO FS,1800 MAIN ST & UNNAMED ST,34.0083340,-118.4898290,,,,,,0
452,2677,RIVIERA NB & WINDWARD FS,1300 RIVIERA AVE & WINDWARD AVE,33.9893870,-118.4693800,,,,,,0
453,2678,WESTMINSTER EB & ABBOT KINNEY NS,300 WESTMINSTER AVE & ABBOT KINNEY BLVD,33.9917920,-118.4706720,,,,,,0
455,2679,CALIFORNIA EB & SHELL NS,600 CALIFORNIA AVE & SHELL AVE,33.9929200,-118.4644370,,,,,,0
460,2684,LINCOLN NB & SUPERBA NS,1800 LINCOLN BLVD & SUPERBA AVE,33.9963840,-118.4574540,,,,,,0
469,2692,LINCOLN NB & VENICE NS,2400 LINCOLN BLVD & VENICE BLVD,33.9940110,-118.4525310,,,,,,0
474,2695,LINCOLN SB & SUPERBA NS,1800 LINCOLN BLVD & SUPERBA AVE,33.9963840,-118.4576940,,,,,,0
476,2697,LINCOLN SB & VENICE NS,2300 LINCOLN BLVD & VENICE BLVD,33.9941260,-118.4530330,,,,,,0
480,2701,CALIFORNIA WB & SHELL NS,600 CALIFORNIA AVE & SHELL AVE,33.9930630,-118.4644160,,,,,,0
481,2702,CALIFORNIA WB & 6TH AVE (VENICE) NS,600 CALIFORNIA AVE & 6TH AVE,33.9914240,-118.4655680,,,,,,0
485,2174,WESTMINSTER WB & ABBOT KINNEY FS,400 WESTMINSTER AVE & ABBOT KINNEY BLVD,33.9915600,-118.4708460,,,,,,0
486,2175,PICO WB & MOTOR FS,10100 W PICO BLVD & MOTOR AVE,34.0500290,-118.4107390,,,,,,0
487,2176,PICO WB & AVE OF THE STARS NS,10100 W PICO BLVD & AVENUE OF THE STARS,34.0512570,-118.4084820,,,,,,0
488,2177,PICO EB & MOTOR NS,10100 W PICO BLVD & MOTOR AVE,34.0499210,-118.4107390,,,,,,0
489,2178,PICO EB & AVE OF THE STARS NS,10100 W PICO BLVD & AVENUE OF THE STARS,34.0511230,-118.4085370,,,,,,0
490,2179,BUNDY SB & AIRPORT FS,3100 S BUNDY DR & AIRPORT AVE,34.0167860,-118.4435890,,,,,,0
491,2180,CENTINELA SB & ROSE FS,3200 S CENTINELA AVE & ROSE AVE,34.0144260,-118.4417850,,,,,,0
492,2181,CENTINELA NB & ROSE NS,3200 S CENTINELA AVE & ROSE AVE,34.0146860,-118.4418830,,,,,,0
493,2182,BUNDY NB & AIRPORT NS,3100 S BUNDY DR & AIRPORT AVE,34.0170370,-118.4436330,,,,,,0
494,2183,CENTINELA NB & WASHINGTON PLACE MB,4000 S CENTINELA AVE & W WASHINGTON BLVD,33.9985670,-118.4296170,,,,,,0
495,2184,CENTINELA NB & BARBARA FS,3900 S CENTINELA AVE & BARBARA AVE,34.0017230,-118.4320110,,,,,,0
496,2185,CENTINELA SB & WASHINGTON PLACE NS,4000 S CENTINELA AVE & WASHINGTON PL,33.9994970,-118.4304040,,,,,,0
497,2186,CENTINELA SB & BARBARA NS,3900 S CENTINELA AVE & BARBARA AVE,34.0015800,-118.4320000,,,,,,0
499,1196,LINCOLN NB & CALIFORNIA (SM) FS,1000 LINCOLN BLVD & CALIFORNIA AVE,34.0238570,-118.4964020,,,,,,0
500,1409,LINCOLN NB & WASHINGTON (SM) FS,900 LINCOLN BLVD & WASHINGTON AVE,34.0251870,-118.4979650,,,,,,0
501,1205,LINCOLN SB & CALIFORNIA (SM) FS,1100 LINCOLN BLVD & CALIFORNIA AVE,34.0233470,-118.4960190,,,,,,0
502,1119,4TH SB & WASHINGTON FS,1000 4TH ST & WASHINGTON AVE,34.0216200,-118.5012940,,,,,,0
503,1105,4TH SB & CALIFORNIA NS,1100 4TH ST & CALIFORNIA AVE,34.0205750,-118.5000590,,,,,,0
504,1043,4TH NB & CALIFORNIA FS,1100 4TH ST & CALIFORNIA AVE,34.0206650,-118.5000040,,,,,,0
505,1058,4TH NB & WASHINGTON FS,1000 4TH ST & WASHINGTON AVE,34.0220580,-118.5016660,,,,,,0
512,2704,RIVIERA SB & WINDWARD NS,1300 RIVIERA AVE & WINDWARD AVE,33.9892890,-118.4694020,,,,,,0
519,1117,WILSHIRE EB & 6TH NS,600 WILSHIRE BLVD & 6TH ST,34.0205550,-118.4964590,,,,,,0
520,1110,WILSHIRE EB & LINCOLN FS,800 WILSHIRE BLVD & LINCOLN BLVD,34.0224920,-118.4940530,,,,,,0
523,1057,WILSHIRE EB & 20TH NS,2000 WILSHIRE BLVD & 20TH ST,34.0313140,-118.4832310,,,,,,0
524,1039,WILSHIRE EB & 22ND NS,2200 WILSHIRE BLVD & 22ND ST,34.0326590,-118.4815320,,,,,,0
525,1121,WILSHIRE EB & 24TH NS,2400 WILSHIRE BLVD & 24TH ST,34.0339680,-118.4798980,,,,,,0
526,1101,WILSHIRE EB & 26TH FS,2600 WILSHIRE BLVD & 26TH ST,34.0362630,-118.4770670,,,,,,0
527,1118,WILSHIRE EB & YALE FS,2900 WILSHIRE BLVD & YALE ST,34.0383520,-118.4744640,,,,,,0
528,1104,WILSHIRE EB & BERKELEY NS,3000 WILSHIRE BLVD & BERKELEY ST,34.0396520,-118.4728200,,,,,,0
529,2187,AVIATION NB & IMPERIAL FS,11300 AVIATION BLVD & E IMPERIAL HWY,33.9312140,-118.3783780,,,,,,0
532,2190,CENTURY WB & AVIATON FS,5600 W CENTURY BLVD & LOS ANGELES COUNTY METROPOLITAN TRA,33.9456400,-118.3788290,,,,,,0
533,2191,CENTURY WB & INTERNATIONAL NS,5700 W CENTURY BLVD & INTERNATIONAL RD,33.9456380,-118.3815100,,,,,,0
534,2192,AIRPORT NB & CENTURY FS,9900 AIRPORT BLVD & W CENTURY BLVD,33.9459030,-118.3859680,,,,,,0
535,2193,96TH WB & AIRPORT FS,5900 W 96TH ST & W CENTURY BLVD,33.9493020,-118.3870400,,,,,,0
536,2194,96TH WB & SEPULVEDA NS,6200 W 96TH ST & W CENTURY BLVD,33.9488030,-118.3956490,,,,,,0
537,2819,SEPULVEDA NB & WESTCHESTER PKWY NS,9100 S SEPULVEDA BLVD & WESTCHESTER PKWY,33.9545030,-118.3961140,,,,,,0
538,2195,SEPULVEDA NB & LA TIJERA FS,8700 S SEPULVEDA BLVD & LA TIJERA BLVD,33.9573580,-118.3961610,,,,,,0
539,2196,MANCHESTER WB & SEPULVEDA FS,6300 W MANCHESTER AVE & S SEPULVEDA BLVD,33.9599700,-118.3964040,,,,,,0
541,2198,MANCHESTER WB & EMERSON NS,6600 W MANCHESTER AVE & EMERSON AVE,33.9599360,-118.4043400,,,,,,0
543,2201,MANCHESTER WB & GEORGETOWN NS,6800 W MANCHESTER AVE & GEORGETOWN AVE,33.9599190,-118.4135610,,,,,,0
544,2202,MANCHESTER WB & LOYOLA FS,7000 W MANCHESTER AVE & LOYOLA BLVD,33.9599150,-118.4168960,,,,,,0
545,2203,LINCOLN NB & 83RD NS,8300 LINCOLN BLVD & W 83RD ST,33.9626480,-118.4215770,,,,,,0
546,2204,LINCOLN NB & LMU DR NS,7900 LINCOLN BLVD & LMU DR,33.9655090,-118.4245140,,,,,,0
549,2205,LINCOLN NB & JEFFERSON FS,6000 LINCOLN BLVD & W JEFFERSON BLVD,33.9723830,-118.4304230,,,,,,0
550,2206,LINCOLN NB & FIJI FS,4800 LINCOLN BLVD & FIJI WAY,33.9787560,-118.4367030,,,,,,0
551,2207,LINCOLN NB & MINDANAO FS,4700 LINCOLN BLVD & MINDANAO WAY,33.9807310,-118.4391270,,,,,,0
553,2209,LINCOLN NB & MAXELLA FS,4300 LINCOLN BLVD & MAXELLA AVE,33.9857990,-118.4435190,,,,,,0
556,2711,LINCOLN NB & SUNSET NS,600 LINCOLN BLVD & SUNSET AVE,34.0001580,-118.4652710,,,,,,0
557,2712,LINCOLN NB & ROSE NS,300 LINCOLN BLVD & ROSE AVE,34.0013270,-118.4676620,,,,,,0
558,1198,LINCOLN NB & MARINE NS,3100 LINCOLN BLVD & MARINE ST,34.0031290,-118.4710680,,,,,,0
559,1195,LINCOLN NB & ASHLAND FS,2700 LINCOLN BLVD & RAYMOND AVE,34.0051830,-118.4738430,,,,,,0
560,1202,LINCOLN NB & PEARL FS,2300 LINCOLN BLVD & PEARL ST,34.0098630,-118.4798530,,,,,,0
561,1120,LINCOLN NB & WILSHIRE FS,1100 LINCOLN BLVD & WILSHIRE BLVD,34.0224010,-118.4947400,,,,,,0
562,1197,LINCOLN NB & IDAHO FS,900 LINCOLN BLVD & IDAHO AVE,34.0265440,-118.4995500,,,,,,0
563,1199,LINCOLN NB & MONTANA NS,800 LINCOLN BLVD & MONTANA AVE,34.0275000,-118.5006550,,,,,,0
564,1237,MONTANA EB & 11TH FS,1100 MONTANA AVE & 11TH ST,34.0300010,-118.4977270,,,,,,0
565,1245,MONTANA EB & EUCLID FS,1300 MONTANA AVE & EUCLID ST,34.0315620,-118.4958210,,,,,,0
566,1238,MONTANA EB & 15TH FS,1500 MONTANA AVE & 15TH ST,34.0330860,-118.4938940,,,,,,0
567,1242,MONTANA EB & 22ND NS,2200 MONTANA AVE & 22ND ST,34.0381520,-118.4876660,,,,,,0
568,1243,MONTANA EB & 24TH FS,2400 MONTANA AVE & 24TH ST,34.0401780,-118.4852920,,,,,,0
569,1246,MONTANA EB & HARVARD NS,2800 MONTANA AVE & HARVARD ST,34.0428410,-118.4819930,,,,,,0
570,1247,MONTANA EB & STANFORD NS,2900 MONTANA AVE & STANFORD ST,34.0443020,-118.4800860,,,,,,0
571,2210,MONTANA EB & CENTINELA NS,12500 MONTANA AVE & CENTINELA AVE,34.0463100,-118.4779850,,,,,,0
572,2211,MONTANA EB & AMHERST NS,12300 MONTANA AVE & S AMHERST AVE,34.0481300,-118.4755010,,,,,,0
573,2212,MONTANA EB & GRETNA GREEN NS,12100 MONTANA AVE & S GRETNA GREEN WAY,34.0494570,-118.4738460,,,,,,0
574,2213,MONTANA EB & BUNDY FS,12000 MONTANA AVE & S BUNDY DR,34.0508380,-118.4720480,,,,,,0
575,2214,BUNDY NB & MONTANA NS,800 S BUNDY DR & MONTANA AVE,34.0505150,-118.4724840,,,,,,0
576,2215,BUNDY SB & MONTANA FS,800 S BUNDY DR & SAN VICENTE BLVD,34.0503190,-118.4722220,,,,,,0
577,2216,MONTANA EB & SAN VICENTE NS,11900 MONTANA AVE & SAN VICENTE BLVD,34.0525770,-118.4699790,,,,,,0
578,2217,SAN VICENTE SB & MAYFIELD FS,11500 SAN VICENTE BLVD & MAYFIELD AVE,34.0532870,-118.4614240,,,,,,0
579,2218,SAN VICENTE WB & BRINGHAM FS,11600 SAN VICENTE BLVD & BRINGHAM AVE,34.0539480,-118.4622440,,,,,,0
580,2219,MONTANA WB & SAN VICENTE FS,MONTANA AVE & SAN VICENTE BLVD,34.0525050,-118.4701860,,,,,,0
581,2220,MONTANA WB & BUNDY NS,MONTANA AVE & S BUNDY DR,34.0505950,-118.4725720,,,,,,0
582,2221,MONTANA WB & GRETNA GREEN NS,MONTANA AVE & S GRETNA GREEN WAY,34.0496270,-118.4737480,,,,,,0
583,2223,MONTANA WB & AMHERST NS,MONTANA AVE & S AMHERST AVE,34.0482470,-118.4754690,,,,,,0
584,2224,MONTANA WB & CENTINELA NS,MONTANA AVE & CENTINELA AVE,34.0464540,-118.4778000,,,,,,0
585,1248,MONTANA SB & STANFORD NS,2900 MONTANA AVE & STANFORD ST,34.0445170,-118.4803160,,,,,,0
586,1257,MONTANA WB & BURLINGAME NS,2800 MONTANA AVE & S BURLINGAME AVE,34.0429040,-118.4820470,,,,,,0
587,1256,MONTANA WB & 26TH FS,2600 MONTANA AVE & 26TH ST,34.0412180,-118.4841380,,,,,,0
588,1255,MONTANA WB & 24TH FS,2400 MONTANA AVE & 24TH ST,34.0398640,-118.4858040,,,,,,0
589,1254,MONTANA WB & 22ND NS,2200 MONTANA AVE & 22ND ST,34.0387790,-118.4871550,,,,,,0
590,1252,MONTANA WB & 17TH NS,1700 MONTANA AVE & 17TH ST,34.0345920,-118.4923160,,,,,,0
591,1251,MONTANA WB & 15TH NS,1500 MONTANA AVE & 15TH ST,34.0330680,-118.4941780,,,,,,0
592,1258,MONTANA WB & EUCLID NS,1300 MONTANA AVE & EUCLID ST,34.0315160,-118.4960940,,,,,,0
593,1249,MONTANA WB & 11TH NS,1100 MONTANA AVE & 11TH ST,34.0299830,-118.4979990,,,,,,0
594,1207,LINCOLN SB & MONTANA FS,800 LINCOLN BLVD & MONTANA AVE,34.0271960,-118.5005230,,,,,,0
595,1206,LINCOLN SB & IDAHO FS,900 LINCOLN BLVD & IDAHO AVE,34.0259640,-118.4990690,,,,,,0
596,1204,LINCOLN SB & ASHLAND NS,2700 LINCOLN BLVD & ASHLAND AVE,34.0046650,-118.4733290,,,,,,0
597,1208,LINCOLN SB & NAVY NS,3100 LINCOLN BLVD & MARINE ST,34.0031290,-118.4712430,,,,,,0
598,2713,LINCOLN SB & ROSE FS,300 LINCOLN BLVD & ROSE AVE,34.0011390,-118.4675190,,,,,,0
599,2714,LINCOLN SB & SUNSET NS,600 LINCOLN BLVD & SUNSET AVE,34.0002650,-118.4656960,,,,,,0
600,2225,LINCOLN SB & MARINA POINTE FS,4300 LINCOLN BLVD & PRIVATE RD,33.9849230,-118.4431140,,,,,,0
602,2716,LINCOLN SB & MINDANAO FS,4700 LINCOLN BLVD & MINDANAO WAY,33.9802480,-118.4389520,,,,,,0
603,2717,LINCOLN SB & FIJI NS,4800 LINCOLN BLVD & FIJI WAY,33.9785410,-118.4367130,,,,,,0
604,2226,LINCOLN SB & JEFFERSON NS,6000 LINCOLN BLVD & W JEFFERSON BLVD,33.9722760,-118.4306730,,,,,,0
605,2227,LINCOLN SB & 83RD FS,8300 LINCOLN BLVD & W 83RD ST,33.9625320,-118.4216310,,,,,,0
606,2228,MANCHESTER EB & LOYOLA FS,7100 W MANCHESTER AVE & UNNAMED ST,33.9596650,-118.4163070,,,,,,0
607,2229,MANCHESTER EB & GEORGETOWN NS,6900 W MANCHESTER AVE & UNNAMED ST,33.9596770,-118.4138110,,,,,,0
609,2231,MANCHESTER EB & EMERSON FS,6600 W MANCHESTER AVE & EMERSON AVE,33.9597220,-118.4041760,,,,,,0
612,2234,SEPULVEDA SB & LA TIJERA FS,8800 S SEPULVEDA BLVD & LA TIJERA BLVD,33.9570000,-118.3962920,,,,,,0
613,2235,96TH EB & AIRPORT NS,5900 W 96TH ST & AIRPORT BLVD,33.9493570,-118.3860810,,,,,,0
614,2236,CENTURY EB & AIRPORT FS,5900 W CENTURY BLVD & AIRPORT BLVD,33.9453300,-118.3856290,,,,,,0
615,2237,CENTURY EB & INTERNATIONAL NS,5600 W CENTURY BLVD & INTERNATIONAL RD,33.9453690,-118.3816840,,,,,,0
616,2238,CENTURY EB & AVIATION NS,5500 W CENTURY BLVD & LOS ANGELES COUNTY METROPOLITAN TRA,33.9453800,-118.3790360,,,,,,0
619,2241,PICO WB & VETERAN FS,10900 W PICO BLVD & VETERAN AVE,34.0386870,-118.4316500,,,,,,0
621,2243,PICO WB & SEPULVEDA NS (Sepulveda Station),11100 W PICO BLVD & S SEPULVEDA BLVD,34.0370550,-118.4350840,,,,,,0
622,2244,PICO WB & SAWTELLE NS,11300 W PICO BLVD & SAWTELLE BLVD,34.0352610,-118.4386600,,,,,,0
623,2245,SAWTELLE NB & NEBRASKA FS,1700 SAWTELLE BLVD & NEBRASKA AVE,34.0440110,-118.4462370,,,,,,0
624,2246,SAWTELLE NB & LA GRANGE NS,2000 SAWTELLE BLVD & LA GRANGE AVE,34.0409370,-118.4435910,,,,,,0
625,2247,SAWTELLE SB & LA GRANGE NS,1900 SAWTELLE BLVD & LA GRANGE AVE,34.0410790,-118.4438090,,,,,,0
626,2248,SAWTELLE SB & NEBRASKA NS,1800 SAWTELLE BLVD & NEBRASKA AVE,34.0441720,-118.4464670,,,,,,0
627,2249,SAWTELLE NB & OHIO FS,1200 SAWTELLE BLVD & DOWLEN DR E,34.0486500,-118.4502510,,,,,,0
628,2250,BONSALL NB & DOWLEN NS,1100 SAWTELLE BLVD & DOWLEN DR E,34.0495880,-118.4510500,,,,,,0
629,2251,SAWTELLE SB & OHIO NS,1200 SAWTELLE BLVD & OHIO AVE,34.0484170,-118.4501420,,,,,,0
630,2252,BONSALL NB & WILSHIRE NS,BONSALLE AVE & RAMP,34.0541910,-118.4548130,,,,,,0
640,2262,BONSALL SB & WILSHIRE FS,1221 BONSALLE AVE & HADLEY LN,34.0539410,-118.4547580,,,,,,0
641,2263,SAN VICENTE WB & MONTANA NS,11800 SAN VICENTE BLVD & MONTANA AVE,34.0530160,-118.4694340,,,,,,0
642,2264,SAN VICENTE WB & BUNDY FS,12000 W SAN VICENTE BLVD & S BUNDY DR,34.0519340,-118.4747900,,,,,,0
643,2265,SAN VICENTE EB & BUNDY NS,12000 SAN VICENTE BLVD & S BUNDY DR,34.0517290,-118.4744730,,,,,,0
644,2266,SAN VICENTE WB & ANITA NS,12500 SAN VICENTE BLVD & S ANITA AVE,34.0507350,-118.4807560,,,,,,0
645,2267,SAN VICENTE WB & BRISTOL NS,12700 SAN VICENTE BLVD & S BRISTOL AVE,34.0498330,-118.4852390,,,,,,0
646,2268,SAN VICENTE WB & AVONDALE NS,12900 SAN VICENTE BLVD & S AVONDALE AVE,34.0489580,-118.4896790,,,,,,0
647,1165,CARLYLE WB & 26TH FS,2600 CARLYLE AVE & 26TH ST,34.0456930,-118.4891470,,,,,,0
648,1164,CARLYLE WB & 24TH NS,2400 CARLYLE AVE & 24TH ST,34.0445540,-118.4906060,,,,,,0
649,1163,CARLYLE WB & 22ND NS,2200 CARLYLE AVE & 22ND ST,34.0431370,-118.4923160,,,,,,0
650,1162,CARLYLE WB & 20TH NS,2000 CARLYLE AVE & 20TH ST,34.0410390,-118.4949180,,,,,,0
651,1161,CARLYLE WB & 17TH NS,1700 CARLYLE AVE & 17TH ST,34.0389320,-118.4974550,,,,,,0
652,1159,CARLYLE WB & 14TH NS,1400 CARLYLE AVE & 14TH ST,34.0365290,-118.5001550,,,,,,0
653,1158,CARLYLE WB & 11TH NS,1100 CARLYLE AVE & 11TH ST,34.0342330,-118.5029860,,,,,,0
654,1166,CARLYLE WB & 9TH NS,900 CARLYLE AVE & 9TH ST,34.0327090,-118.5048470,,,,,,0
655,1365,SAN VICENTE WB & 7TH FS,700 SAN VICENTE BLVD & 7TH ST,34.0319600,-118.5081070,,,,,,0
657,1116,4TH SB & SAN VICENTE FS,300 4TH ST & SAN VICENTE BLVD,34.0290560,-118.5108590,,,,,,0
659,1112,4TH SB & MARGUERITA FS,500 4TH ST & UNNAMED ST,34.0271110,-118.5080290,,,,,,0
660,1059,4TH SB & ALTA FS,600 4TH ST & ALTA AVE,34.0261110,-118.5066620,,,,,,0
661,1113,4TH SB & MONTANA FS,800 4TH ST & MONTANA AVE,34.0243880,-118.5045300,,,,,,0
662,1109,4TH SB & IDAHO FS,900 4TH ST & IDAHO AVE,34.0230310,-118.5029560,,,,,,0
663,1049,4TH NB & IDAHO FS,900 4TH ST & IDAHO AVE,34.0233790,-118.5032080,,,,,,0
664,1052,4TH NB & MONTANA FS,800 4TH ST & UNNAMED ST,34.0246470,-118.5046510,,,,,,0
665,1038,4TH NB & ALTA FS,600 4TH ST & ALTA AVE,34.0264960,-118.5067830,,,,,,0
666,1051,4TH NB & MARGUERITA FS,500 4TH ST & MARGUERITA AVE,34.0274600,-118.5081710,,,,,,0
668,1056,4TH NB & SAN VICENTE NS,300 4TH ST & SAN VICENTE BLVD,34.0292440,-118.5107400,,,,,,0
669,1363,SAN VICENTE EB & 7TH NS,700 SAN VICENTE BLVD & 7TH ST,34.0318710,-118.5078120,,,,,,0
670,1364,SAN VICENTE EB & 9TH NS,900 SAN VICENTE BLVD & 9TH ST,34.0340120,-118.5066070,,,,,,0
671,1356,SAN VICENTE EB & 11TH NS,1100 SAN VICENTE BLVD & 11TH ST,34.0364650,-118.5058280,,,,,,0
672,1357,SAN VICENTE EB & 14TH NS,1400 SAN VICENTE BLVD & 14TH ST,34.0396000,-118.5039270,,,,,,0
673,1358,SAN VICENTE EB & 17TH NS,1700 SAN VICENTE BLVD & 17TH ST,34.0418510,-118.5010530,,,,,,0
674,1359,SAN VICENTE EB & 19TH NS,1900 SAN VICENTE BLVD & 19TH ST,34.0432240,-118.4992990,,,,,,0
675,1361,SAN VICENTE EB & 21ST PL NS,2200 SAN VICENTE BLVD & 21ST ST,34.0452770,-118.4967190,,,,,,0
676,1362,SAN VICENTE EB & 23RD NS,2300 SAN VICENTE BLVD & 23RD ST,34.0466940,-118.4948890,,,,,,0
677,2269,SAN VICENTE EB & AVONDALE NS,12900 SAN VICENTE BLVD & S AVONDALE AVE,34.0486980,-118.4896670,,,,,,0
678,2270,SAN VICENTE EB & BRISTOL NS,12700 SAN VICENTE BLVD & S BRISTOL AVE,34.0495820,-118.4852610,,,,,,0
679,1274,OCEAN PARK EB & 21ST NS,2100 OCEAN PARK BLVD & 21ST ST,34.0141910,-118.4637960,,,,,,0
680,1291,OCEAN PARK WB & 21ST FS,2100 OCEAN PARK BLVD & 21ST ST,34.0142080,-118.4640030,,,,,,0
681,2271,MONTANA EB & BARRINGTON NS,11706 MONTANA AVE & S BARRINGTON AVE,34.0548450,-118.4672010,,,,,,0
682,2272,BARRINGTON NB & MONTANA FS,700 S BARRINGTON AVE & SAN VICENTE BLVD,34.0551400,-118.4671910,,,,,,0
685,2275,BARRINGTON SB & MONTANA NS,700 S BARRINGTON AVE & MONTANA AVE,34.0549880,-118.4672450,,,,,,0
686,2276,OLYMPIC EB & SEPULVEDA NS,11000 W OLYMPIC BLVD & S SEPULVEDA BLVD,34.0401290,-118.4379920,,,,,,0
688,2278,OLYMPIC EB & VETERAN NS,10940 W OLYMPIC BLVD & VETERAN AVE,34.0422180,-118.4344820,,,,,,0
689,2279,WESTWOOD SB & OLYMPIC FS,2200 WESTWOOD BLVD & W OLYMPIC BLVD,34.0437960,-118.4316920,,,,,,0
690,2280,OLYMPIC WB & VETERAN NS,10940 W OLYMPIC BLVD & VETERAN AVE,34.0423350,-118.4344170,,,,,,0
696,1176,COLORADO EB & CLOVERFIELD FS,2200 COLORADO AVE & CLOVERFIELD BLVD,34.0285640,-118.4736780,,,,,,0
697,1173,COLORADO EB & 26TH NS,2602 COLORADO AVE & 26TH ST,34.0305190,-118.4712930,,,,,,0
698,1311,OLYMPIC EB & 26TH FS (26th St/Bergamot Station),2600 OLYMPIC BLVD & 26TH ST,34.0280880,-118.4693020,,,,,,0
699,1314,OLYMPIC EB & STEWART FS,2800 OLYMPIC BLVD & STEWART ST,34.0297680,-118.4649090,,,,,,0
700,1313,OLYMPIC EB & LA FARM RESTAURANT MB,3000 OLYMPIC BLVD & STEWART ST,34.0309010,-118.4607010,,,,,,0
702,2282,OLYMPIC EB & CENTINELA (EAST) FS,12100 W OLYMPIC BLVD & CENTINELA AVE,34.0316660,-118.4573860,,,,,,0
703,2283,OLYMPIC WB & CENTINELA (EAST) NS,12300 W OLYMPIC BLVD & CENTINELA AVE,34.0317110,-118.4575270,,,,,,0
705,1316,OLYMPIC WB & NEW ROADS SCHOOL MB,3000 OLYMPIC BLVD & BERKELEY ST,34.0308990,-118.4619550,,,,,,0
706,1317,OLYMPIC WB & STEWART NS,2800 OLYMPIC BLVD & STEWART ST,34.0298470,-118.4653350,,,,,,0
707,1315,OLYMPIC WB & 26TH NS (26th St/Bergamot Station),2600 OLYMPIC BLVD & 26TH ST,34.0281860,-118.4697930,,,,,,0
708,1183,COLORADO WB & 26TH FS,2600 COLORADO AVE & 26TH ST,34.0304200,-118.4715660,,,,,,0
709,1186,COLORADO WB & CLOVERFIELD FS,2235 COLORADO AVE & CLOVERFIELD BLVD,34.0283580,-118.4740590,,,,,,0
710,1182,COLORADO WB & 20TH NS,2000 COLORADO AVE & 20TH ST,34.0260810,-118.4768800,,,,,,0
713,1338,PICO EB & MAIN FS,200 PICO BLVD & MAIN ST,34.0080030,-118.4895440,,,,,,0
714,2285,OLYMPIC EB & GRANVILLE NS,11800 W OLYMPIC BLVD & GRANVILLE AVE,34.0331170,-118.4498820,,,,,,0
715,2286,OLYMPIC EB & BARRINGTON NS,11700 W OLYMPIC BLVD & S BARRINGTON AVE,34.0341400,-118.4479310,,,,,,0
716,2287,OLYMPIC EB & COLBY NS,11500 W OLYMPIC BLVD & COLBY AVE,34.0358610,-118.4450220,,,,,,0
717,2289,OLYMPIC EB & PURDUE NS,11400 W OLYMPIC BLVD & PURDUE AVE,34.0369280,-118.4432450,,,,,,0
719,2291,OLYMPIC EB & OVERLAND NS,10700 W OLYMPIC BLVD & OVERLAND AVE,34.0459120,-118.4282470,,,,,,0
721,2293,OLYMPIC EB & PROSSER NS,10500 W OLYMPIC BLVD & PROSSER AVE,34.0480190,-118.4246280,,,,,,0
723,2295,OLYMPIC EB & BEVERLY GLEN NS,10400 W OLYMPIC BLVD & S BEVERLY GLEN BLVD,34.0502690,-118.4205940,,,,,,0
725,2296,CENTURY PARK WEST NB & OLYMPIC FS,2100 CENTURY PARK W & W OLYMPIC BLVD,34.0534410,-118.4163650,,,,,,0
726,2297,CONSTELLATION EB & SOLAR WAY NS,10200 CONSTELLATION BLVD & UNNAMED ST,34.0576810,-118.4172660,,,,,,0
727,2298,CONSTELLATION EB & CENT PK EAST NS,10100 CONSTELLATION BLVD & CENTURY PARK E,34.0602620,-118.4136360,,,,,,0
735,2300,PICO EB & GLENVILLE FS,9200 W PICO BLVD & GLENVILLE DR,34.0552260,-118.3929260,,,,,,0
736,2301,PICO EB & CENTURY PARK EAST NS,10000 W PICO BLVD & CENTURY PARK E,34.0523950,-118.4063340,,,,,,0
737,2302,PICO EB & ROXBURY NS,9800 W PICO BLVD & ROXBURY DR,34.0539020,-118.4022760,,,,,,0
738,2303,PICO EB & BEVERWIL FS,9700 W PICO BLVD & BEVERWIL DR,34.0549700,-118.3988620,,,,,,0
739,2304,PICO EB & DOHENY NS,9100 W PICO BLVD & S DOHENY DR,34.0552100,-118.3900990,,,,,,0
740,2305,PICO EB & LIVONIA NS,8900 W PICO BLVD & LIVONIA AVE,34.0552130,-118.3865190,,,,,,0
742,2307,PICO EB & SHERBOURNE NS,8600 W PICO BLVD & S SHERBOURNE DR,34.0539560,-118.3796540,,,,,,0
743,2308,PICO EB & LA CIENEGA FS,8500 W PICO BLVD & S LA CIENEGA BLVD,34.0532340,-118.3758440,,,,,,0
745,2310,PICO EB & CRESCENT HTS NS,6300 W PICO BLVD & S CRESCENT HTS BLVD,34.0524580,-118.3722200,,,,,,0
746,2311,PICO EB & HI POINT NS,6000 W PICO BLVD & HI POINT ST,34.0518880,-118.3688480,,,,,,0
747,2312,PICO EB & FAIRFAX FS,5900 W PICO BLVD & S FAIRFAX AVE,34.0513970,-118.3663260,,,,,,0
749,2314,PICO EB & CURSON NS,5600 W PICO BLVD & S CURSON AVE,34.0497370,-118.3599190,,,,,,0
750,2315,PICO EB & HAUSER NS,5500 W PICO BLVD & HAUSER BLVD,34.0487180,-118.3570810,,,,,,0
752,2317,PICO EB & COCHRAN NS,5200 W PICO BLVD & S COCHRAN AVE,34.0482010,-118.3527810,,,,,,0
753,2318,PICO EB & REDONDO NS,5100 W PICO BLVD & S REDONDO BLVD,34.0479610,-118.3495180,,,,,,0
754,2319,PICO EB & ORANGE NS,5000 W PICO BLVD & S ORANGE DR,34.0477750,-118.3471610,,,,,,0
755,2320,PICO EB & LA BREA FS,4900 W PICO BLVD & S LA BREA AVE,34.0478650,-118.3443570,,,,,,0
756,2321,PICO EB & SAN VICENTE NS,4800 W PICO BLVD & PRIVATE RD,34.0483680,-118.3398170,,,,,,0
757,1322,PICO EB & 10TH FS,1000 PICO BLVD & 10TH ST,34.0134050,-118.4807120,,,,,,0
758,1336,PICO EB & EUCLID NS,1300 PICO BLVD & 10TH ST,34.0150020,-118.4777490,,,,,,0
761,2324,PICO EB & SAWTELLE FS,11300 W PICO BLVD & SAWTELLE BLVD,34.0353330,-118.4383000,,,,,,0
762,2325,PICO EB & SEPULVEDA NS (Sepulveda Station),11000 W PICO BLVD & S SEPULVEDA BLVD,34.0368670,-118.4352580,,,,,,0
764,2327,PICO EB & VETERAN NS,10900 W PICO BLVD & VETERAN AVE,34.0386880,-118.4314430,,,,,,0
767,2330,PICO WB & TREMAINE NS,4800 W PICO BLVD & PRIVATE RD,34.0483680,-118.3407670,,,,,,0
768,2331,PICO WB & LA BREA NS,4900 W PICO BLVD & S LA BREA AVE,34.0479640,-118.3444660,,,,,,0
769,2332,PICO WB & REDONDO NS,5100 W PICO BLVD & S REDONDO BLVD,34.0480420,-118.3491040,,,,,,0
770,2333,PICO WB & COCHRAN NS,5200 W PICO BLVD & S COCHRAN AVE,34.0483180,-118.3524870,,,,,,0
772,2335,PICO WB & HAUSER NS,5500 W PICO BLVD & HAUSER BLVD,34.0487180,-118.3567540,,,,,,0
773,2336,PICO WB & CURSON FS,5600 W PICO BLVD & S CURSON AVE,34.0499960,-118.3603780,,,,,,0
775,2338,PICO WB & FAIRFAX FS,5900 W PICO BLVD & S HAYWORTH AVE,34.0516740,-118.3672980,,,,,,0
777,2340,PICO WB & CRESCENT HEIGHTS NS,6300 W PICO BLVD & S CRESCENT HEIGHTS BLVD,34.0525570,-118.3719370,,,,,,0
779,2342,PICO WB & LA CIENEGA NS,8500 W PICO BLVD & S LA CIENEGA BLVD,34.0533590,-118.3760300,,,,,,0
781,2344,PICO WB & LA PEER NS,8900 W PICO BLVD & S LA PEER DR,34.0553200,-118.3867490,,,,,,0
782,2345,ROBERTSON SB & CASHIO NS,1500 S ROBERTSON BLVD & CASHIO ST,34.0522980,-118.3841810,,,,,,0
783,2346,PICO WB & DOHENY NS,9100 W PICO BLVD & S DOHENY DR,34.0553180,-118.3898150,,,,,,0
784,2347,PICO WB & GLENVILLE NS,9200 W PICO BLVD & CARDIFF AVE,34.0553330,-118.3927950,,,,,,0
790,2349,CONSTELLATION WB & CENT PK EAST FS,10100 CONSTELLATION BLVD & CENTURY PARK E,34.0601810,-118.4139410,,,,,,0
792,2351,CENTURY PARK WEST SB & OLYMPIC NS,2100 CENTURY PARK W & CENTURY WOODS DR,34.0532000,-118.4162550,,,,,,0
793,2352,OLYMPIC WB & KERWOOD FS,10300 W OLYMPIC BLVD & KERWOOD AVE,34.0513630,-118.4189040,,,,,,0
794,2353,OLYMPIC WB & BEVERLY GLEN NS,10400 W OLYMPIC BLVD & S BEVERLY GLEN BLVD,34.0503850,-118.4205390,,,,,,0
796,2355,OLYMPIC WB & PROSSER NS,10500 W OLYMPIC BLVD & PROSSER AVE,34.0481620,-118.4245080,,,,,,0
798,2357,OLYMPIC WB & OVERLAND NS,10700 W OLYMPIC BLVD & OVERLAND AVE,34.0460550,-118.4281270,,,,,,0
800,2359,OLYMPIC WB & PURDUE NS,11400 W OLYMPIC BLVD & PURDUE AVE,34.0370990,-118.4431040,,,,,,0
801,2360,OLYMPIC WB & COLBY NS,11500 W OLYMPIC BLVD & BUTLER AVE,34.0359870,-118.4449450,,,,,,0
802,2361,OLYMPIC WB & BARRINGTON NS,11700 W OLYMPIC BLVD & S BARRINGTON AVE,34.0343730,-118.4476700,,,,,,0
803,2362,OLYMPIC WB & GRANVILLE NS,11800 W OLYMPIC BLVD & GRANVILLE AVE,34.0332340,-118.4497730,,,,,,0
804,2363,PICO EB & OVERLAND FS,10700 W PICO BLVD & OVERLAND AVE,34.0418810,-118.4245090,,,,,,0
806,2365,PICO EB & PROSSER NS,10550 W PICO BLVD & PROSSER AVE,34.0439340,-118.4211290,,,,,,0
807,2366,PICO EB & PATRICIA FS,10500 W PICO BLVD & PATRICIA AVE,34.0452600,-118.4188290,,,,,,0
809,2368,PICO EB & KERWOOD NS,10300 W PICO BLVD & KERWOOD AVE,34.0472230,-118.4154170,,,,,,0
811,2370,PICO WB & BEVERWIL NS,9700 W PICO BLVD & BEVERWIL DR,34.0550320,-118.3990150,,,,,,0
812,2371,PICO WB & ROXBURY NS,9800 W PICO BLVD & ROXBURY DR,34.0540630,-118.4020690,,,,,,0
813,2372,PICO WB & CENTURY PARK EAST FS,10000 W PICO BLVD & CENTURY PARK E,34.0524580,-118.4063890,,,,,,0
815,2374,PICO WB & KERWOOD NS,10300 W PICO BLVD & KERWOOD AVE,34.0474290,-118.4152640,,,,,,0
817,2376,PICO WB & PATRICIA NS,10500 W PICO BLVD & PATRICIA AVE,34.0453050,-118.4189380,,,,,,0
818,2377,PICO WB & PROSSER NS,10550 W PICO BLVD & PROSSER AVE,34.0440770,-118.4210640,,,,,,0
820,2379,PICO WB & OVERLAND NS,10700 W PICO BLVD & OVERLAND AVE,34.0419700,-118.4247160,,,,,,0
821,2380,PICO WB & CENTINELA NS,12300 W PICO BLVD & S BUNDY DR,34.0281650,-118.4528180,,,,,,0
822,1347,PICO WB & 33RD (URBAN AVE) NS,3300 PICO BLVD & URBAN AVE,34.0269180,-118.4553680,,,,,,0
823,1352,PICO WB & DORCHESTER (30TH) NS,3000 PICO BLVD & 30TH ST,34.0254280,-118.4583440,,,,,,0
825,1346,PICO WB & 26TH NS,2600 PICO BLVD & 26TH ST,34.0232480,-118.4624840,,,,,,0
826,1351,PICO WB & CLOVERFIELD NS,2400 PICO BLVD & CLOVERFIELD BLVD,34.0218660,-118.4651210,,,,,,0
827,1345,PICO WB & 21ST NS,2100 PICO BLVD & 21ST ST,34.0202510,-118.4680960,,,,,,0
828,1344,PICO WB & 20TH NS,2000 PICO BLVD & 20TH ST,34.0196050,-118.4693270,,,,,,0
829,1343,PICO WB & 18TH NS,1800 PICO BLVD & 19TH ST,34.0186270,-118.4711580,,,,,,0
830,1342,PICO WB & 17TH NS,1700 PICO BLVD & 17TH ST,34.0178550,-118.4726170,,,,,,0
831,1341,PICO WB & 14TH NS,1400 PICO BLVD & 14TH ST,34.0160520,-118.4759950,,,,,,0
832,1412,PICO WB & 12TH NS,1200 PICO BLVD & 12TH ST,34.0147500,-118.4784350,,,,,,0
833,1339,PICO WB & 10TH NS,1000 PICO BLVD & 10TH ST,34.0135300,-118.4807010,,,,,,0
834,2381,WESTWOOD SB & MISSOURI NS,1800 WESTWOOD BLVD & MISSOURI AVE,34.0482660,-118.4355730,,,,,,0
835,2382,WESTWOOD SB & LA GRANGE NS,2000 WESTWOOD BLVD & LA GRANGE AVE,34.0467460,-118.4342390,,,,,,0
836,2383,WESTWOOD SB & OLYMPIC NS,2100 WESTWOOD BLVD & W OLYMPIC BLVD,34.0439570,-118.4319540,,,,,,0
837,2384,WESTWOOD SB & EXPOSITION FS (Westwood Station),WESTWOOD BLVD & EXPOSITION BLVD,34.0359840,-118.4252520,,,,,,0
839,2386,WESTWOOD SB & COVENTRY NS,2700 WESTWOOD BLVD & COVENTRY PL,34.0334710,-118.4233710,,,,,,0
840,2387,WESTWOOD SB & NATIONAL NS,2900 WESTWOOD BLVD & EXPOSITION BLVD,34.0309060,-118.4212280,,,,,,0
841,2388,NATIONAL WB & KELTON NS,10900 NATIONAL BLVD & KELTON AVE,34.0298040,-118.4225360,,,,,,0
842,2389,NATL WB & COVENTRY (MILITARY) NS,11000 NATIONAL BLVD & COVENTRY PL,34.0287450,-118.4253050,,,,,,0
843,2390,NATIONAL WB & SEPULVEDA NS,11200 NATIONAL BLVD & PRIVATE RD,34.0275060,-118.4284010,,,,,,0
844,2391,NATIONAL WB & SAWTELLE FS,11300 NATIONAL BLVD & PRIVATE RD,34.0259450,-118.4321520,,,,,,0
846,2393,NATIONAL WB & FEDERAL NS,11500 NATIONAL BLVD & FEDERAL AVE,34.0238370,-118.4364130,,,,,,0
848,2395,BARRINGTON NB & BROOKHAVEN NS,2700 S BARRINGTON AVE & BROOKHAVEN AVE,34.0256120,-118.4408890,,,,,,0
849,2396,BARRINGTON NB & RICHLAND NS,2500 S BARRINGTON AVE & RICHLAND AVE,34.0274270,-118.4423440,,,,,,0
850,2397,GATEWAY WB & BARRINGTON FS,11700 GATEWAY BLVD & S BARRINGTON AVE,34.0282940,-118.4434470,,,,,,0
852,2399,OCEAN PARK WB & BUNDY NS,11800 OCEAN PARK BLVD & S BUNDY DR,34.0246040,-118.4461560,,,,,,0
853,1294,OCEAN PARK WB & 31ST NS,3100 OCEAN PARK BLVD & 31ST ST,34.0206930,-118.4528580,,,,,,0
854,1293,OCEAN PARK WB & 28TH FS,2800 OCEAN PARK BLVD & 28TH ST,34.0186750,-118.4563220,,,,,,0
855,1292,OCEAN PARK WB & 25TH NS,2500 OCEAN PARK BLVD & 25TH ST,34.0171420,-118.4589040,,,,,,0
856,1304,OCEAN PARK WB & 23RD FS,2300 OCEAN PARK BLVD & 23RD ST,34.0152760,-118.4620970,,,,,,0
857,1140,OCEAN PARK WB & 17TH NS,1700 OCEAN PARK BLVD & 17TH ST,34.0125040,-118.4668680,,,,,,0
860,1411,OCEAN PARK WB & 11TH FS,1100 OCEAN PARK BLVD & 11TH ST,34.0083320,-118.4740900,,,,,,0
861,1296,OCEAN PARK WB & 5TH NS,500 OCEAN PARK BLVD & 5TH ST,34.0046270,-118.4803860,,,,,,0
862,1279,OCEAN PARK EB & 5TH FS,500 OCEAN PARK BLVD & 5TH ST,34.0048340,-118.4797640,,,,,,0
863,1283,OCEAN PARK EB & HIGHLAND NS,600 OCEAN PARK BLVD & HIGHLAND AVE,34.0055070,-118.4787080,,,,,,0
864,1271,OCEAN PARK EB & 11TH NS,1100 OCEAN PARK BLVD & 11TH ST,34.0083150,-118.4738390,,,,,,0
866,1272,OCEAN PARK EB & 14TH NS,1400 OCEAN PARK BLVD & 14TH ST,34.0103690,-118.4703100,,,,,,0
867,1130,OCEAN PARK EB & 17TH NS,1700 OCEAN PARK BLVD & 17TH ST,34.0122620,-118.4670860,,,,,,0
868,1275,OCEAN PARK EB & 23RD FS,2300 OCEAN PARK BLVD & 23RD ST,34.0154740,-118.4614970,,,,,,0
869,1276,OCEAN PARK EB & 25TH FS,2500 OCEAN PARK BLVD & UNNAMED ST,34.0174470,-118.4580430,,,,,,0
870,1277,OCEAN PARK EB & 28TH FS,2800 OCEAN PARK BLVD & 28TH ST,34.0188550,-118.4556250,,,,,,0
871,1286,OCEAN PARK EB & 31ST FS,3100 OCEAN PARK BLVD & 31ST ST,34.0209000,-118.4521380,,,,,,0
873,2401,GATEWAY EB & BARRINGTON NS,11700 GATEWAY BLVD & S BARRINGTON AVE,34.0281600,-118.4432290,,,,,,0
874,2402,BARRINGTON SB & BROOKHAVEN NS,2700 S BARRINGTON AVE & BROOKHAVEN AVE,34.0257370,-118.4411400,,,,,,0
877,2405,NATIONAL EB & BUTLER NS,11400 NATIONAL BLVD & BUTLER AVE,34.0247620,-118.4342000,,,,,,0
878,2406,NATIONAL EB & SAWTELLE NS,11300 NATIONAL BLVD & SAWTELLE BLVD,34.0261430,-118.4314970,,,,,,0
879,2407,NATIONAL EB & MILITARY FS,11000 NATIONAL BLVD & COVENTRY PL,34.0286370,-118.4252940,,,,,,0
881,2408,WESTWOOD NB & NATIONAL FS,2900 WESTWOOD BLVD & KELTON AVE,34.0308880,-118.4210870,,,,,,0
882,2409,WESTWOOD NB & COVENTRY NS,2800 WESTWOOD BLVD & COVENTRY PL,34.0334450,-118.4230870,,,,,,0
884,2411,WESTWOOD NB & ASHBY NS (Westwood Station),2500 WESTWOOD BLVD & ASHBY AVE,34.0370920,-118.4259520,,,,,,0
886,2729,SUNSET EB & ARNO NS,16800 W SUNSET BLVD & ARNO WAY,34.0435650,-118.5444640,,,,,,0
888,2731,SUNSET EB & BAYLOR (MARQUEZ E) FS,16600 W SUNSET BLVD & MARQUEZ AVE,34.0481580,-118.5430820,,,,,,0
890,2733,SUNSET EB & BIENVENIDA NS,16300 W SUNSET BLVD & BIENVENEDA AVE,34.0488270,-118.5397230,,,,,,0
891,2734,SUNSET EB & NORTHFIELD FS,16200 W SUNSET BLVD & NORTHFIELD ST,34.0484460,-118.5382380,,,,,,0
893,2736,SUNSET EB & EL MEDIO FS,15900 W SUNSET BLVD & EL MEDIO AVE,34.0487340,-118.5331860,,,,,,0
894,2737,SUNSET EB & TEMESCAL CYN NS,15600 W SUNSET BLVD & TEMESCAL CANYON RD,34.0497430,-118.5293910,,,,,,0
895,2738,SUNSET EB & SWARTHMORE FS,15300 W SUNSET BLVD & SWARTHMORE AVE,34.0470670,-118.5254770,,,,,,0
897,2740,SUNSET EB & CAREY NS,15100 W SUNSET BLVD & CAREY ST,34.0450760,-118.5230700,,,,,,0
898,2741,SUNSET EB & DRUMMOND NS,14900 W SUNSET BLVD & DRUMMOND ST,34.0430230,-118.5205880,,,,,,0
899,2742,SUNSET EB & PAMPAS RICAS FS,14800 UNNAMED ST & DRUMMOND ST,34.0411930,-118.5184000,,,,,,0
900,2743,CHAUTAUQUA SB & BORGOS NS,600 CHAUTAUQUA BLVD & BORGOS PL,34.0385630,-118.5182720,,,,,,0
902,2745,CHAUTAUQUA SB & LA CUMBRE NS,400 CHAUTAUQUA BLVD & LA CUMBRE DR,34.0341760,-118.5196780,,,,,,0
903,2412,WEST CHANNEL EB & MESA NS,300 W CHANNEL RD & MESA RD,34.0301390,-118.5153570,,,,,,0
904,2413,ENTRADA EB & STASSI NS,500 ENTRADA DR & STASSI LN,34.0337820,-118.5101310,,,,,,0
916,2414,ENTRADA WB & STASSI NS,500 ENTRADA DR & SAN VICENTE BLVD,34.0339880,-118.5100660,,,,,,0
917,2415,ENTRADA WB & EAST CHANNEL NS,400 ENTRADA DR,34.0310840,-118.5125340,,,,,,0
918,2416,MESA SB & ENTRADA NS,300 MESA RD & ENTRADA DR,34.0299610,-118.5152480,,,,,,0
920,2417,CHAUTAUQUA NB & LA CUMBRE NS,400 CHAUTAUQUA BLVD & LA CUMBRE DR,34.0340510,-118.5195580,,,,,,0
922,2747,CHAUTAUQUA NB & BORGOS FS,600 CHAUTAUQUA BLVD & BORGOS PL,34.0385000,-118.5181960,,,,,,0
923,2748,CHAUTAUQUA NB & SUNSET NS,700 CHAUTAUQUA BLVD & W SUNSET BLVD,34.0413100,-118.5181380,,,,,,0
925,2750,SUNSET WB & DRUMMOND FS,14900 W SUNSET BLVD & DRUMMOND ST,34.0431660,-118.5206320,,,,,,0
926,2751,SUNSET WB & CAREY FS,15100 W SUNSET BLVD & PRIVATE RD,34.0453000,-118.5232020,,,,,,0
928,2753,SUNSET WB & SWARTHMORE FS,15300 W SUNSET BLVD & PRIVATE RD,34.0475580,-118.5259480,,,,,,0
929,2754,SUNSET WB & TEMESCAL CYN NS,15600 W SUNSET BLVD & TEMESCAL CANYON RD,34.0497170,-118.5291510,,,,,,0
930,2755,SUNSET WB & EL MEDIO FS,15900 W SUNSET BLVD & TEMESCAL CANYON RD,34.0488490,-118.5336880,,,,,,0
932,2757,SUNSET WB & LAS LOMAS NS,16200 W SUNSET BLVD & LAS LOMAS AVE,34.0485080,-118.5386200,,,,,,0
933,2758,SUNSET WB & BIENVENIDA FS,16300 W SUNSET BLVD & LAS LOMAS AVE,34.0489070,-118.5402470,,,,,,0
935,2760,SUNSET WB & MARQUEZ E (BAYLOR) FS,16600 W SUNSET BLVD & LAS LOMAS AVE,34.0476740,-118.5437680,,,,,,0
937,2762,SUNSET WB & ARNO NS,16800 W SUNSET BLVD & ARNO WAY,34.0436460,-118.5444640,,,,,,0
939,2419,BUNDY SB & IDAHO NS,1600 S BUNDY DR & IDAHO AVE,34.0388990,-118.4614380,,,,,,0
940,2420,BUNDY SB & NEBRASKA NS,1800 S BUNDY DR & NEBRASKA AVE,34.0361300,-118.4581690,,,,,,0
941,2421,BUNDY SB & LA GRANGE NS,2000 S BUNDY DR & LA GRANGE AVE,34.0339240,-118.4555680,,,,,,0
942,2422,BUNDY SB & ROCHESTER NS,1400 S BUNDY DR & ROCHESTER AVE,34.0422130,-118.4653180,,,,,,0
943,2423,BUNDY SB & SANTA MONICA NS,1400 S BUNDY DR & SANTA MONICA BLVD,34.0405610,-118.4633940,,,,,,0
945,2425,BUNDY SB & MAYFIELD NS,1000 S BUNDY DR & MAYFIELD AVE,34.0471740,-118.4692030,,,,,,0
946,2426,BUNDY NB & MAYFIELD NS,1000 S BUNDY DR & MAYFIELD AVE,34.0471380,-118.4690170,,,,,,0
948,2428,OLIVE NB & PICO NS,1300 S OLIVE ST & W PICO BLVD,34.0380370,-118.2633260,,,,,,0
951,2431,OLIVE NB & OLYMPIC NS,1000 S OLIVE ST & W OLYMPIC BLVD,34.0422320,-118.2595600,,,,,,0
956,2435,FIGUEROA NB & 5TH NS,500 S FIGUEROA ST & W 5TH ST,34.0522170,-118.2571430,,,,,,0
957,2436,HOPE NB & 1ST FS,100 N HOPE ST & W 1ST ST,34.0567780,-118.2494470,,,,,,0
958,2437,HOPE NB & TEMPLE NS,100 N HOPE ST & W 1ST ST,34.0586470,-118.2477110,,,,,,0
960,2439,TEMPLE EB & HILL FS,300 W TEMPLE ST & N HILL ST,34.0562830,-118.2443070,,,,,,0
961,2440,TEMPLE EB & SPRING NS,100 W TEMPLE ST & N SPRING ST,34.0550030,-118.2428240,,,,,,0
962,2441,LOS ANGELES NB & TEMPLE FS,200 N LOS ANGELES ST & E TEMPLE ST,34.0539820,-118.2402920,,,,,,0
964,2443,ALAMEDA NB & LOS ANGELES FS (Union Station),800 N ALAMEDA ST & N LOS ANGELES ST,34.0570230,-118.2373110,,,,,,0
966,2445,TEMPLE WB & SPRING NS,100 W TEMPLE ST & N SPRING ST,34.0548600,-118.2425400,,,,,,0
967,2446,TEMPLE WB & HILL NS,300 W TEMPLE ST & N HILL ST,34.0564180,-118.2443290,,,,,,0
969,2448,HOPE SB & 1ST FS,100 S HOPE ST & N HILL ST,34.0562950,-118.2500910,,,,,,0
971,2450,FLOWER SB & 5TH FS,500 S FLOWER ST & UNNAMED ST,34.0509730,-118.2567400,,,,,,0
980,2454,GRAND SB & PICO NS,1300 S GRAND AVE & W PICO BLVD,34.0390400,-118.2643180,,,,,,0
981,2455,GRAND SB & 14TH NS,1400 S GRAND AVE & W 14TH ST,34.0372770,-118.2653880,,,,,,0
982,2456,BUNDY NB & LA GRANGE NS,2000 S BUNDY DR & LA GRANGE AVE,34.0338790,-118.4553940,,,,,,0
983,2457,BUNDY NB & NEBRASKA NS,1800 S BUNDY DR & NEBRASKA AVE,34.0364970,-118.4584870,,,,,,0
984,2458,BUNDY NB & IDAHO NS,1600 S BUNDY DR & IDAHO AVE,34.0387650,-118.4611540,,,,,,0
985,2459,BUNDY NB & SANTA MONICA FS,1400 S BUNDY DR & PEARL ST,34.0409810,-118.4637550,,,,,,0
986,2460,BUNDY NB & ROCHESTER (RHODE ISL) MB,1400 S BUNDY DR & ROCHESTER AVE,34.0422850,-118.4652750,,,,,,0
987,1319,PEARL WB & 16TH NS,1600 PEARL ST & 16TH ST,34.0143580,-118.4714640,,,,,,0
989,1006,14TH NB & MICHIGAN NS,1800 14TH ST & MICHIGAN AVE,34.0182930,-118.4787920,,,,,,0
991,1002,14TH NB & BROADWAY FS,1400 14TH ST & BROADWAY,34.0230630,-118.4843560,,,,,,0
992,1001,14TH NB & ARIZONA FS,1300 14TH ST & ARIZONA AVE,34.0257690,-118.4875260,,,,,,0
993,1003,14TH NB & CALIFORNIA FS,1000 14TH ST & CALIFORNIA AVE,34.0285100,-118.4907190,,,,,,0
994,1005,14TH NB & IDAHO NS,900 14TH ST & IDAHO AVE,34.0307340,-118.4933210,,,,,,0
995,1007,14TH NB & MONTANA NS,800 14TH ST & MONTANA AVE,34.0320640,-118.4948840,,,,,,0
996,1022,20TH SB & IDAHO FS,900 20TH ST & IDAHO AVE,34.0351460,-118.4877020,,,,,,0
997,1029,20TH SB & WASHINGTON NS,900 20TH ST & WASHINGTON AVE,34.0342350,-118.4866420,,,,,,0
998,1018,20TH SB & CALIFORNIA NS,1000 20TH ST & CALIFORNIA AVE,34.0328860,-118.4850560,,,,,,0
1001,1021,20TH SB & DELAWARE FS,1900 20TH ST & DELAWARE AVE,34.0216770,-118.4719500,,,,,,0
1002,1026,20TH SB & PEARL NS,2200 20TH ST & PEARL ST,34.0168700,-118.4674120,,,,,,0
1017,2474,ROBERTSON NB & CASHIO NS,1500 S ROBERTSON BLVD & HORNER ST,34.0518420,-118.3841150,,,,,,0
1020,2476,BAGLEY NB & EXPOSITION FS,3600 BAGLEY AVE & I-10,34.0291040,-118.3968210,,,,,,0
1021,2477,NATIONAL WB & BAGLEY FS,9400 NATIONAL BLVD & BAGLEY AVE,34.0313950,-118.3962780,,,,,,0
1023,2479,NATIONAL WB & CASTLE HEIGHTS NS,9700 NATIONAL BLVD & CASTLE HEIGHTS AVE,34.0314280,-118.3997580,,,,,,0
1026,2482,PALMS WB & NATIONAL FS (Palms Station),10000 PALMS BLVD & NATIONAL BLVD,34.0289990,-118.4037810,,,,,,0
1027,1297,OCEAN PARK WB & BEVERLEY NS,600 OCEAN PARK BLVD & BEVERLY AVE,34.0056410,-118.4786970,,,,,,0
1028,2483,OLIVE NB & 9TH FS,900 S OLIVE ST & W 9TH ST,34.0439320,-118.2579660,,,,,,0
1030,2484,PALMS WB & JASMINE FS,10100 PALMS BLVD & JASMINE AVE,34.0274130,-118.4066810,,,,,,0
1031,2485,PALMS WB & MOTOR FS,10300 PALMS BLVD & MOTOR AVE,34.0262390,-118.4089150,,,,,,0
1032,2486,GLENDON SB & PALMS FS,3500 GLENDON AVE & PALMS BLVD,34.0231740,-118.4137110,,,,,,0
1033,2487,GLENDON SB & CHARNOCK NS,3600 GLENDON AVE & CHARNOCK RD,34.0213320,-118.4123120,,,,,,0
1035,2488,CHARNOCK WB & GREENFIELD NS,10900 CHARNOCK RD & GREENFIELD AVE,34.0191090,-118.4162790,,,,,,0
1036,2489,CHARNOCK WB & TILDEN NS,11000 CHARNOCK RD & TILDEN AVE,34.0181400,-118.4180880,,,,,,0
1037,2490,CHARNOCK WB & SEPULVEDA NS,11100 CHARNOCK RD & S SEPULVEDA BLVD,34.0169480,-118.4201590,,,,,,0
1038,2491,SEPULVEDA NB & PALMS FS,3500 S SEPULVEDA BLVD & PALMS BLVD,34.0197100,-118.4225300,,,,,,0
1039,2492,SEPULVEDA NB & QUEENSLAND NS,3200 S SEPULVEDA BLVD & QUEENSLAND ST,34.0237600,-118.4257660,,,,,,0
1040,2493,SEPULVEDA SB & QUEENSLAND NS,3200 S SEPULVEDA BLVD & QUEENSLAND ST,34.0238850,-118.4263120,,,,,,0
1041,2494,SEPULVEDA SB & PALMS NS,3500 S SEPULVEDA BLVD & PALMS BLVD,34.0192900,-118.4223120,,,,,,0
1042,2495,CHARNOCK EB & SEPULVEDA FS,11100 CHARNOCK RD & S SEPULVEDA BLVD,34.0169660,-118.4199630,,,,,,0
1043,2496,CHARNOCK EB & TILDEN NS,11000 CHARNOCK RD & TILDEN AVE,34.0180060,-118.4181430,,,,,,0
1044,2497,CHARNOCK EB & GREENFIELD NS,10900 CHARNOCK RD & GREENFIELD AVE,34.0189650,-118.4163550,,,,,,0
1045,2498,CHARNOCK EB & KELTON NS,10800 CHARNOCK RD & KELTON AVE,34.0197900,-118.4148510,,,,,,0
1046,2499,GLENDON NB & CHARNOCK FS,3600 GLENDON AVE & CHARNOCK RD,34.0216090,-118.4124100,,,,,,0
1047,2500,GLENDON NB & PALMS NS,3500 GLENDON AVE & PALMS BLVD,34.0234060,-118.4137660,,,,,,0
1048,2501,PALMS EB & MOTOR FS,10300 PALMS BLVD & MOTOR AVE,34.0264540,-118.4083050,,,,,,0
1049,2502,PALMS EB & JASMINE FS,10100 PALMS BLVD & JASMINE AVE,34.0275830,-118.4062010,,,,,,0
1050,2503,PALMS EB & EXPOSITION NS (Palms Station),10000 PALMS BLVD & EXPOSITION BLVD,34.0290170,-118.4036060,,,,,,0
1051,2504,NATIONAL EB & CASTLE HEIGHTS NS,9800 NATIONAL BLVD & CASTLE HEIGHTS AVE,34.0313380,-118.4000860,,,,,,0
1053,2506,NATIONAL EB & BAGLEY NS,9400 NATIONAL BLVD & BAGLEY AVE,34.0313060,-118.3961470,,,,,,0
1054,2507,BAGLEY SB & EXPOSITION NS,3600 BAGLEY AVE & EXPOSITION BLVD,34.0288440,-118.3970280,,,,,,0
1058,2510,BAGLEY WB & MONTE MAR NS,1700 BAGLEY AVE & MONTE MAR DR,34.0487490,-118.3909420,,,,,,0
1059,2511,MONTE MAR WB & BEVERLY DR NS,9400 MONTE MAR DR & S BEVERLY DR,34.0494790,-118.3951990,,,,,,0
1060,2512,BEVERLY DR NB & CASHIO NS,1500 S BEVERLY DR & CASHIO ST,34.0523340,-118.3953120,,,,,,0
1061,2513,BEVERLY DR SB & CASHIO FS,1500 S BEVERLY DR & CASHIO ST,34.0522440,-118.3954430,,,,,,0
1062,2514,MOTOR SB & CHEVIOT PLAYGROUND MB,2500 MOTOR AVE & RECREATION CENTER DRWY,34.0473020,-118.4084660,,,,,,0
1064,2517,MOTOR SB & MONTE MAR NS,2600 MOTOR AVE & MONTE MAR DR,34.0438330,-118.4055690,,,,,,0
1065,2518,MOTOR SB & CRESTA NS,2700 MOTOR AVE & CRESTA DR,34.0420450,-118.4037120,,,,,,0
1066,2519,MOTOR SB & CLUB NS,2800 MOTOR AVE & CLUB DR,34.0403890,-118.4041780,,,,,,0
1067,2520,MOTOR SB & GLENBARR NS,2900 MOTOR AVE & GLENBARR AVE,34.0393670,-118.4071990,,,,,,0
1068,2521,MOTOR SB & CHEVIOT NS,3000 MOTOR AVE & CHEVIOT DR,34.0374960,-118.4082110,,,,,,0
1069,2522,MOTOR SB & BANNOCKBURN NS,3000 MOTOR AVE & BANNOCKBURN DR,34.0355170,-118.4093540,,,,,,0
1082,2535,MOTOR NB & MANNING FS,3200 MOTOR AVE & MANNING AVE,34.0340310,-118.4105190,,,,,,0
1083,2536,MOTOR NB & BANNOCKBURN NS,3100 MOTOR AVE & BANNOCKBURN DR,34.0353830,-118.4093430,,,,,,0
1084,2537,MOTOR NB & CHEVIOT NS,3000 MOTOR AVE & CHEVIOT DR,34.0373520,-118.4082440,,,,,,0
1085,2538,MOTOR NB & GLENBARR FS,2900 MOTOR AVE & GLENBARR AVE,34.0392680,-118.4071880,,,,,,0
1086,2539,MOTOR NB & CLUB NS,2800 MOTOR AVE & CLUB DR,34.0402910,-118.4042870,,,,,,0
1087,2540,MOTOR NB & CRESTA NS,2700 MOTOR AVE & CRESTA DR,34.0419740,-118.4035260,,,,,,0
1088,2541,MOTOR NB & MONTE MAR NS,2600 MOTOR AVE & MONTE MAR DR,34.0437710,-118.4054160,,,,,,0
1089,2542,MONTE MAR EB & BEVERLY DR FS,9400 MONTE MAR DR & REXFORD DR,34.0493810,-118.3949920,,,,,,0
1090,2543,BAGLEY EB & MONTE MAR FS,1700 BAGLEY AVE & MONTE MAR DR,34.0487490,-118.3907680,,,,,,0
1092,2545,AIRDROME EB & LIVONIA NS,9000 AIRDROME ST & LIVONIA AVE,34.0489760,-118.3866430,,,,,,0
1093,2546,CENTINELA NB & SHORT FS,4500 S CENTINELA AVE & SHORT AVE,33.9930620,-118.4234690,,,,,,0
1094,2547,CENTINELA NB & LOUISE FS,4300 S CENTINELA AVE & LOUISE AVE,33.9949380,-118.4258710,,,,,,0
1095,2548,CENTINELA NB & CHARNOCK FS,3600 S CENTINELA AVE & CHARNOCK RD,34.0078830,-118.4366900,,,,,,0
1096,2549,CENTINELA NB & PALMS NS,3500 S CENTINELA AVE & PALMS BLVD,34.0104570,-118.4386580,,,,,,0
1097,2550,CENTINELA NB & WOODBINE FS,3400 S CENTINELA AVE & WOODBINE ST,34.0122100,-118.4400030,,,,,,0
1098,2551,BUNDY NB & PEARL NS,2500 S BUNDY DR & PEARL ST,34.0269450,-118.4481790,,,,,,0
1099,2552,BARRINGTON NB & TERRYHILL FS,600 S BARRINGTON AVE & TERRYHILL PL,34.0581180,-118.4681900,,,,,,0
1100,2553,BARRINGTON NB & 400 BL (REC CTR) NS,400 S BARRINGTON AVE & BARRINGTON CT,34.0622690,-118.4684720,,,,,,0
1101,2554,BARRINGTON SB & 400 BK (REC CTR) MB,400 S BARRINGTON AVE & BARRINGTON CT,34.0616160,-118.4686130,,,,,,0
1106,2560,BARRINGTON SB & TERRYHILL NS,600 S BARRINGTON AVE & TERRYHILL PL,34.0577510,-118.4681790,,,,,,0
1107,2561,BUNDY SB & PEARL NS,2500 S BUNDY DR & PEARL ST,34.0270440,-118.4483540,,,,,,0
1108,2562,CENTINELA SB & WOODBINE NS,3400 S CENTINELA AVE & WOODBINE ST,34.0122000,-118.4400900,,,,,,0
1109,2563,CENTINELA SB & PALMS NS,3500 S CENTINELA AVE & PALMS BLVD,34.0106180,-118.4388650,,,,,,0
1110,2564,CENTINELA SB & CHARNOCK NS,3600 S CENTINELA AVE & CHARNOCK RD,34.0077660,-118.4367010,,,,,,0
1115,1221,MAIN NB & MARINE NS,2900 MAIN ST & MARINE ST,33.9979890,-118.4795190,,,,,,0
1125,2568,NATIONAL PLACE WB & OVERLAND FS,10700 NATIONAL PL & OVERLAND AVE,34.0308480,-118.4164610,,,,,,0
1126,1106,4TH SB & CIVIC CENTER MB,1700 4TH ST & CIVIC CENTER DR,34.0109400,-118.4887880,,,,,,0
1131,2766,CALIFORNIA EB & ABBOT KINNEY FS,600 CALIFORNIA AVE & ABBOT KINNEY BLVD,33.9908960,-118.4658390,,,,,,0
1133,2569,NATIONAL WB & ROBERTSON FS,9000 NATIONAL BLVD & ROBERTSON BLVD,34.0313100,-118.3911610,,,,,,0
1134,2570,OVERLAND NB & PALMS FS,3400 OVERLAND AVE & LAWLER ST,34.0251620,-118.4119030,,,,,,0
1138,2572,LINCOLN SB & LMU DR FS,7900 LINCOLN BLVD & BLUFF CREEK DR,33.9652760,-118.4245680,,,,,,0
1139,2573,PICO WB & SHERBOURNE NS,8600 W PICO BLVD & S SHERBOURNE DR,34.0540190,-118.3794900,,,,,,0
1145,2768,SUNSET EB & MARQUEZ PL FS,17100 W SUNSET BLVD & MARQUEZ AVE,34.0418550,-118.5488890,,,,,,0
1146,2769,SUNSET WB & MARQUEZ PL NS,17100 W SUNSET BLVD & MARQUEZ AVE,34.0418280,-118.5492050,,,,,,0
1147,2579,ENTRADA EB & OCEAN NS,400 ENTRADA DR & OCEAN AVE EXT,34.0308510,-118.5128060,,,,,,0
1148,2580,OVERLAND SB & NATIONAL PLACE FS,3100 OVERLAND AVE & NATIONAL BLVD,34.0303830,-118.4160450,,,,,,0
1149,2581,WESTWOOD PLAZA NB & J STEIN EYE FS,100 UCLA MEDICAL PLZ & PRIVATE RD,34.0651020,-118.4452300,,,,,,0
1151,2583,SAN VICENTE EB & ANITA NS,12500 SAN VICENTE BLVD & S ANITA AVE,34.0504840,-118.4807120,,,,,,0
1164,2779,ABBOT KINNEY WB & SANTA CLARA NS,1200 ABBOT KINNEY BLVD & SANTA CLARA AVE,33.9912500,-118.4681740,,,,,,0
1165,2770,WINDWARD WB & MAIN NS,200 WINDWARD AVE & RIVIERA AVE,33.9883740,-118.4707410,,,,,,0
1167,2588,AIRDROME WB & CREST NS,9100 AIRDROME ST & S CREST DR,34.0492080,-118.3874290,,,,,,0
1186,1212,LINCOLN SB & PICO FS,1900 LINCOLN BLVD & 4TH ST,34.0118720,-118.4824970,,,,,,0
1187,2607,LINCOLN SB & MANCHESTER NS,8600 LINCOLN BLVD & W MANCHESTER AVE,33.9599660,-118.4194690,,,,,,0
1188,2608,LINCOLN NB & MANCHESTER FS,8600 LINCOLN BLVD & W 85TH ST,33.9605470,-118.4198080,,,,,,0
1190,2609,LAX TRANSIT CENTER BAY 11,6111 UNNAMED ST & W MANCHESTER AVE,33.9490660,-118.3917260,,,,,,0
1192,2610,96TH WB & ALVERSTONE NS,6300 W 96TH ST & ALVERSTONE AVE,33.9487390,-118.3970550,,,,,,0
1193,2611,LAX TRANSIT CENTER BAY 12,6111 UNNAMED ST & LOS ANGELES COUNTY METROPOLITAN TRA,33.9490660,-118.3918680,,,,,,0
1196,1287,OCEAN PARK WB & 14TH FS,1400 OCEAN PARK BLVD & 14TH ST,34.0103870,-118.4705280,,,,,,0
1198,2613,GRAND SB & 9TH FS,900 S GRAND AVE & S GRAND AVE,34.0439950,-118.2597550,,,,,,0
1199,2614,SANTA MONICA WB & SEPULVEDA FS,11100 SANTA MONICA BLVD & S SEPULVEDA BLVD,34.0475110,-118.4449020,,,,,,0
1200,2772,LINCOLN NB & CALIFORNIA (VEN) NS,1400 LINCOLN BLVD & CALIFORNIA AVE,33.9980170,-118.4608600,,,,,,0
1201,2773,LINCOLN SB & BROADWAY (VEN) NS,900 LINCOLN BLVD & BROADWAY,33.9983110,-118.4617110,,,,,,0
1234,1420,SANTA MONICA EB & 17TH FS,1700 SANTA MONICA BLVD & 17TH ST,34.0264120,-118.4827500,,,,,,0
1235,2627,GRAND SB & OLYMPIC FS,1100 S GRAND AVE & W OLYMPIC BLVD,34.0427880,-118.2608800,,,,,,0
1236,2628,SANTA MONICA WB & VETERAN FS,11000 SANTA MONICA BLVD & VETERAN AVE,34.0488680,-118.4404740,,,,,,0
1238,1421,SMC BUNDY CAMPUS PARKING LOT,3200 COLLEGE DR & UNNAMED ST,34.0153880,-118.4456590,,,,,,0
1240,1422,20TH NB & PICO FS,2037 20TH ST & PICO BLVD,34.0197570,-118.4695780,,,,,,0
1242,1423,20TH NB & DELAWARE NS,1900 20TH ST & DELAWARE AVE,34.0219100,-118.4720050,,,,,,0
1243,1424,20TH NB & OLYMPIC NS,1709 20TH ST & OLYMPIC BLVD,34.0242320,-118.4747370,,,,,,0
1246,1426,STEWART SB & PENNSYLVANIA FS,1660 STEWART ST & PENNSYLVANIA AVE,34.0314550,-118.4675530,,,,,,0
1258,2630,7TH WB & OLIVE FS,500 W 7TH ST & S OLIVE ST,34.0467230,-118.2556400,,,,,,0
1260,2632,7TH WB & HOPE NS (7th St/Metro Center Station),600 W 7TH ST & S HOPE ST,34.0478510,-118.2574070,,,,,,0
1261,2633,7TH WB & FIGUEROA NS (7th St/Metro Center Station),800 W 7TH ST & S FIGUEROA ST,34.0493910,-118.2597860,,,,,,0
1262,2634,WILSHIRE EB & HOPE NS (7th St/Metro Center Station),700 WILSHIRE BLVD & S HOPE ST,34.0486380,-118.2571560,,,,,,0
1263,2635,WILSHIRE EB & GRAND NS,600 WILSHIRE BLVD & S GRAND AVE,34.0479850,-118.2560980,,,,,,0
1265,2637,NATIONAL EB & ROBERTSON FS,9000 NATIONAL BLVD & I-10,34.0311400,-118.3907250,,,,,,0
1275,2642,ABBOT KINNEY EB & CADIZ COURT NS,1200 ABBOT KINNEY BLVD & CADIZ CT,33.9911700,-118.4681840,,,,,,0
1278,1432,PICO WB & STEWART FS,2700 PICO BLVD & STEWART ST,34.0241810,-118.4607520,,,,,,0
1279,2643,LINCOLN NB & BLUFF CREEK FS,7900 LINCOLN BLVD & BLUFF CREEK DR,33.9679570,-118.4275370,,,,,,0
1280,2644,LINCOLN SB & BLUFF CREEK FS,7900 LINCOLN BLVD & BLUFF CREEK DR,33.9673400,-118.4275470,,,,,,0
1281,2645,CHARNOCK WB & MIDVALE NS,10869 CHARNOCK RD & MIDVALE AVE,34.0204440,-118.4138160,,,,,,0
1282,2774,MANCHESTER EB & SEPULVEDA NS,6400 W MANCHESTER AVE & S SEPULVEDA BLVD,33.9597380,-118.3963280,,,,,,0
1286,2775,AIRPORT SB & 98TH FS,9800 AIRPORT BLVD & W 98TH ST,33.9469140,-118.3860670,,,,,,0
1287,1435,6TH SB & SANTA MONICA FS,1414 6TH ST & SANTA MONICA BLVD,34.0178130,-118.4932010,,,,,,0
1288,2776,LINCOLN SB & JEFFERSON FS,6008 Unit BLVD & W JEFFERSON BLVD,33.9717300,-118.4302470,,,,,,0
1290,2778,BUNDY SB & OLYMPIC FS (Bundy Station),2108 S BUNDY DR & W OLYMPIC BLVD,34.0318960,-118.4532070,,,,,,0
1291,2780,26TH & SAN VICENTE MB,232 26TH ST & S AVONDALE AVE,34.0475680,-118.4910390,,,,,,0
1301,2782,WESTERN NB & WILSHIRE FS (Wilshire/Western Station),646 S WESTERN AVE & W 6TH ST,34.0621820,-118.3090140,,,,,,0
1302,2783,WILSHIRE WB WESTERN FS (Wilshire/Western Sta),3807 WILSHIRE BLVD & S WESTERN AVE,34.0617160,-118.3093300,,,,,,0
1305,2784,MAIN NB & MARKET NS,1513 MAIN ST & WINDWARD AVE,33.9886950,-118.4715270,,,,,,0
1307,2785,WESTWOOD NB & PICO FS,2399 WESTWOOD BLVD & ASHBY AVE,34.0404890,-118.4287180,,,,,,0
1308,2786,PICO EB & SAN VICENTE FS,4700 W PICO BLVD & S HUDSON AVE,34.0485210,-118.3383880,,,,,,0
1310,2788,CRENSHAW NB & PICO FS,1262 CRENSHAW BLVD & W PICO BLVD,34.0482020,-118.3264280,,,,,,0
1311,2789,CRENSHAW NB & OLYMPIC NS,1020 CRENSHAW BLVD & W OLYMPIC BLVD,34.0545200,-118.3230030,,,,,,0
1312,2790,WILSHIRE EB & CRENSHAW FS,4188 WILSHIRE BLVD & CRENSHAW BLVD,34.0616880,-118.3188910,,,,,,0
1313,2791,CRENSHAW SB & WILSHIRE FS,673 CRENSHAW BLVD & WILSHIRE BLVD,34.0615630,-118.3192950,,,,,,0
1314,2792,CRENSHAW SB & OLYMPIC FS,1023 CRENSHAW BLVD & W OLYMPIC BLVD,34.0545110,-118.3231340,,,,,,0
1315,2793,PICO WB & CRENSHAW FS,4207 W PICO BLVD & CRENSHAW BLVD,34.0478890,-118.3269730,,,,,,0
1317,2794,MAIN (LA) NB & ALAMEDA NS,N MAIN ST & E TEMPLE ST,34.0588300,-118.2372660,,,,,,0
1318,2795,NATIONAL EB & VENICE FS (Culver City Station),8882 NATIONAL BLVD & VENICE BLVD,34.0290310,-118.3878750,,,,,,0
1319,2796,ROBERTSON BL NB & VENICE BL NS (Culver City Station),3700 ROBERTSON BLVD & HOKE AVE,34.0269090,-118.3900650,,,,,,0
1323,2798,4TH NB & CIVIC CTR NS 3,1717 4TH ST & CIVIC CENTER DR,34.0111810,-118.4889090,,,,,,0
1325,2799,SAN VICENTE EB & MONTANA NS,11900 SAN VICENTE BLVD & MONTANA AVE,34.0526390,-118.4700120,,,,,,0
1328,2801,CHARLES E YOUNG TERM,602 CHARLES E YOUNG DR E & UNNAMED ST,34.0686160,-118.4402380,,,,,,0
1329,2802,WILSHIRE WB & BONSALL FS,11300 RAMP & BONSALLE AVE,34.0545380,-118.4561450,,,,,,0
1330,2803,PICO EB & GATEWAY NS,11510 W PICO BLVD & UNNAMED ST,34.0332520,-118.4425070,,,,,,0
1333,2804,BROADWAY EB & 11TH NS,1032 BROADWAY & 11TH ST,34.0203380,-118.4870880,,,,,,0
1334,2805,BROADWAY EB & LINCOLN NS,710 BROADWAY & LINCOLN BLVD,34.0180250,-118.4899400,,,,,,0
1335,2806,BROADWAY EB & 14TH NS,1320 BROADWAY & 14TH ST,34.0226960,-118.4841920,,,,,,0
1336,2807,BROADWAY EB & 17TH NS,1700 BROADWAY & 17TH ST,34.0249820,-118.4813720,,,,,,0
1337,2808,BROADWAY EB & 20TH NS,1958 BROADWAY & 20TH ST,34.0272410,-118.4785630,,,,,,0
1338,2809,BROADWAY WB & 20TH FS,1955 BROADWAY & 20TH ST,34.0270440,-118.4789440,,,,,,0
1339,2810,BROADWAY WB & 17TH NS,1701 BROADWAY & 17TH ST,34.0251250,-118.4813290,,,,,,0
1340,2811,BROADWAY WB & 14TH NS,1453 BROADWAY & 14TH ST,34.0228660,-118.4841050,,,,,,0
1341,2812,BROADWAY WB & 11TH FS,1027 BROADWAY & 11TH ST,34.0204270,-118.4871100,,,,,,0
1342,2813,BROADWAY WB & LINCOLN NS,809 BROADWAY & LINCOLN BLVD,34.0182400,-118.4898100,,,,,,0
1343,2814,OCEAN PARK EB & BUNDY FS,12010 OCEAN PARK BLVD & S BUNDY DR,34.0245590,-118.4460250,,,,,,0
1344,2815,7TH SB & OLYMPIC BLVD NS,1660 7TH ST & OLYMPIC BLVD,34.0146910,-118.4876850,,,,,,0
1345,2817,MAIN NB & CIVIC AUDITORIUM FS,1855 MAIN ST & MAIN ST,34.0097920,-118.4903010,,,,,,0
1348,2826,ARTISANS WAY NB & CENTINELA AVE NS,ARTISANS WAY & S CENTINELA AVE,33.9837490,-118.4033370,,,,,,0
1350,2845,PICO WB & BUNDY FS,W PICO BLVD & S BARRINGTON AVE,34.0290000,-118.4510420,,,,,,0
1351,2862,BARRINGTON NB & WILSHIRE NS,S BARRINGTON AVE & WILSHIRE BLVD,34.0494230,-118.4607620,,,,,,0
1352,2853,BARRINGTON PL NB & CHAYOTE ST NS,S BARRINGTON PL & CHAYOTE ST,34.0658650,-118.4689610,,,,,,0
1353,2855,BARRINGTON SB & WILSHIRE NS,S BARRINGTON AVE & WILSHIRE BLVD,34.0495390,-118.4609800,,,,,,0
1354,2822,MANNING EB & NATIONAL NS (Palms Station),MANNING AVE & BANNOCKBURN DR,34.0300640,-118.4038040,,,,,,0
1355,2823,NATIONAL WB & PALMS NS (Palms Station),NATIONAL BLVD & PALMS BLVD,34.0292770,-118.4034980,,,,,,0
1358,2820,WILSHIRE EB & 17TH FS,1704 WILSHIRE BLVD & 17TH ST,34.0291360,-118.4858980,,,,,,0
1359,2821,WILSHIRE WB & 17TH NS,1703 WILSHIRE BLVD & 17TH ST,34.0291800,-118.4860070,,,,,,0
1360,2824,7TH NB & SAN VICENTE FS,7TH ST & SAN VICENTE BLVD,34.0322290,-118.5080530,,,,,,0
1362,2827,BLUFF CREEK WB & CENTINELA FS,BLUFF CREEK DR & S CENTINELA AVE,33.9836440,-118.4011670,,,,,,0
1363,2828,BLUFF CREEK WB & ARTISANS FS,BLUFF CREEK DR & ARTISANS WAY,33.9815760,-118.4025600,,,,,,0
1364,2829,BLUFF CREEK WB & CAMPUS CENTER NS,BLUFF CREEK DR & CAMPUS CENTER DR,33.9776080,-118.4064460,,,,,,0
1365,2830,CAMPUS CENTER NB & MILLENIUM FS,CAMPUS CENTER DR & MILLENNIUM DR,33.9798610,-118.4079320,,,,,,0
1366,2831,CENTINELA NB & JEFFERSON FS,S CENTINELA AVE & JEFFERSON BLVD,33.9815150,-118.4093090,,,,,,0
1367,2832,CENTINELA NB & LUCILE FS,S CENTINELA AVE & LUCILE ST,33.9831600,-118.4112740,,,,,,0
1368,2833,CENTINELA NB & 90 EAST MB,S CENTINELA AVE & RAMP,33.9855020,-118.4139810,,,,,,0
1369,2834,CENTINELA NB & BRADDOCK NS,S CENTINELA AVE & BRADDOCK DR,33.9894070,-118.4188070,,,,,,0
1370,2835,CENTINELA NB & CULVER NS,S CENTINELA AVE & CULVER BLVD,33.9909710,-118.4207610,,,,,,0
1371,2836,CENTINELA SB & WASHINGTON NS,S CENTINELA AVE & W WASHINGTON BLVD,33.9970470,-118.4285460,,,,,,0
1372,2837,CENTINELA SB & SHORT NS,S CENTINELA AVE & SHORT AVE,33.9929460,-118.4234680,,,,,,0
1373,2838,CENTINELA SB & CULVER FS,S CENTINELA AVE & CULVER BLVD,33.9908460,-118.4207390,,,,,,0
1374,2839,CENTINELA SB & BRADDOCK NS,S CENTINELA AVE & BRADDOCK DR,33.9893360,-118.4188940,,,,,,0
1375,2840,CENTINELA SB & 90 EAST MB,S CENTINELA AVE & RAMP,33.9851440,-118.4136860,,,,,,0
1376,2841,CENTINELA SB & LUCILE NS,S CENTINELA AVE & LUCILE ST,33.9830440,-118.4112730,,,,,,0
1377,2842,CAMPUS CENTER SB & JEFFERSON FS,CAMPUS CENTER DR & JEFFERSON BLVD,33.9810770,-118.4089590,,,,,,0
1378,2843,CAMPUS CENTER SB & MILLENIUM FS,CAMPUS CENTER DR & MILLENNIUM DR,33.9793070,-118.4076920,,,,,,0
1379,2844,BLUFF CREEK EB & CAMPUS CENTER FS,BLUFF CREEK DR & PRIVATE RD,33.9775450,-118.4061410,,,,,,0
1381,2847,BARRINGTON NB & OLYMPIC FS,S BARRINGTON AVE & W OLYMPIC BLVD,34.0344350,-118.4479650,,,,,,0
1382,2848,BARRINGTON NB & LA GRANGE FS,S BARRINGTON AVE & LA GRANGE AVE,34.0372500,-118.4503810,,,,,,0
1383,2849,BARRINGTON NB & SANTA MONICA NS,S BARRINGTON AVE & SANTA MONICA BLVD,34.0436490,-118.4558720,,,,,,0
1384,2850,BARRINGTON NB & TEXAS NS,S BARRINGTON AVE & TEXAS AVE,34.0471350,-118.4589020,,,,,,0
1386,2852,BARRINGTON NB & KIOWA FS,S BARRINGTON AVE & KIOWA AVE,34.0511560,-118.4626200,,,,,,0
1387,2851,BARRINGTON NB & SAN VICENTE NS,S BARRINGTON AVE & SAN VICENTE BLVD,34.0534960,-118.4653750,,,,,,0
1388,2854,BARRINGTON SB & KIOWA FS,S BARRINGTON AVE & KIOWA AVE,34.0509230,-118.4625220,,,,,,0
1389,2856,BARRINGTON SB & TEXAS NS,S BARRINGTON AVE & TEXAS AVE,34.0472240,-118.4591310,,,,,,0
1390,2857,BARRINGTON SB & SANTA MONICA NS,S BARRINGTON AVE & SANTA MONICA BLVD,34.0438280,-118.4561670,,,,,,0
1391,2858,BARRINGTON SB & NEBRASKA FS,S BARRINGTON AVE & NEBRASKA AVE,34.0398780,-118.4527870,,,,,,0
1392,2859,BARRINGTON SB & LA GRANGE FS,S BARRINGTON AVE & LA GRANGE AVE,34.0369730,-118.4502500,,,,,,0
1393,2860,BARRINGTON SB & OLYMPIC NS,S BARRINGTON AVE & W OLYMPIC BLVD,34.0343450,-118.4479970,,,,,,0
1394,2861,BARRINGTON SB & GORHAM NS,S BARRINGTON AVE & GORHAM AVE,34.0540500,-118.4661410,,,,,,0
1395,2864,MARQUESAS WB & VIA MARINA FS,MARQUESAS WAY,33.9764080,-118.4597130,,,,,,0
1396,2941,17TH SB & COLORADO NS (17th St/SMC Station),17TH ST & COLORADO AVE,34.0240620,-118.4802020,,,,,,0
1399,2918,VENICE EB & BEETHOVEN FS,VENICE BLVD & BEETHOVEN ST,33.9997790,-118.4411030,,,,,,0
1400,2917,VENICE WB & BEETHOVEN FS,VENICE BLVD & BEETHOVEN ST,33.9999670,-118.4411910,,,,,,0
1401,2904,SALTAIR SB & WILSHIRE FS,S SALTAIR AVE & TEXAS AVE,34.0448430,-118.4657170,,,,,,0
1410,2873,VIA MARINA SB & ADMIRALTY FS,VIA MARINA & ADMIRALTY WAY,33.9812400,-118.4600180,,,,,,0
1413,2866,OCEAN NB & VENICE NS,OCEAN AVE & S VENICE BLVD,33.9872640,-118.4651450,,,,,,0
1414,2867,VENICE WAY WB & RIVIERA NS,VENICE WAY & RIVIERA AVE,33.9874560,-118.4685140,,,,,,0
1415,2868,SANTA MONICA WB & 17TH FS,SANTA MONICA BLVD & 17TH ST,34.0261780,-118.4831860,,,,,,0
1417,2870,VENICE WAY EB & RIVIERA NS,VENICE WAY & RIVIERA AVE,33.9873570,-118.4686560,,,,,,0
1418,2872,OCEAN SB & VENICE FS,OCEAN AVE & S VENICE BLVD,33.9871300,-118.4651550,,,,,,0
1421,2874,VIA MARINA SB & PANAY FS,VIA MARINA & UNNAMED ST,33.9788520,-118.4592390,,,,,,0
1429,2883,VENICE EB & ROBERTSON FS (Culver City Station),VENICE BLVD & EXPOSITION BLVD,34.0286090,-118.3894120,,,,,,0
1430,2884,MAXELLA EB & GLENCOE MB,MAXELLA AVE & PRIVATE RD,33.9867150,-118.4412420,,,,,,0
1431,2885,GLENCOE NB & MAXELLA FS,GLENCOE AVE & MAXELLA AVE,33.9874140,-118.4404260,,,,,,0
1432,2886,GLENCOE NB & 4114 GLENCOE MB,GLENCOE AVE & PRIVATE RD,33.9892460,-118.4421190,,,,,,0
1433,2887,GLENCOE NB & BEACH FS,GLENCOE AVE & BEACH AVE,33.9915870,-118.4443920,,,,,,0
1434,2888,WASHINGTON EB & REDWOOD NS,W WASHINGTON BLVD & REDWOOD AVE,33.9931290,-118.4423560,,,,,,0
1435,2889,WASHINGTON EB & BEETHOVEN FS,W WASHINGTON BLVD & BEETHOVEN ST,33.9953180,-118.4379980,,,,,,0
1438,2892,WALGROVE NB & LUCILLE NS,WALGROVE AVE & LUCILLE AVE,33.9989210,-118.4476230,,,,,,0
1442,2896,23RD NB & ASHLAND NS,23RD ST & ASHLAND AVE,34.0128100,-118.4597900,,,,,,0
1443,2897,20TH NB & PEARL FS,20TH ST & PEARL ST,34.0172100,-118.4675440,,,,,,0
1444,2898,OLYMPIC EB & EXPO BIKE PATH NS,OLYMPIC BLVD & PEARL ST,34.0262740,-118.4736290,,,,,,0
1445,2899,STEWART NB & NEBRASKA FS,STEWART ST & NEBRASKA AVE,34.0302410,-118.4656850,,,,,,0
1447,2901,COLORADO EB & STANFORD NS,COLORADO AVE & STANFORD ST,34.0338800,-118.4671330,,,,,,0
1448,2902,COLORADO EB & FRANKLIN FS,COLORADO AVE & FRANKLIN ST,34.0353150,-118.4653800,,,,,,0
1449,2903,CENTINELA NB & SATNA MONICA FS,CENTINELA AVE & SANTA MONICA BLVD,34.0387470,-118.4678090,,,,,,0
1450,2905,CENTINELA SB & SANTA MONICA FS,CENTINELA AVE & SANTA MONICA BLVD,34.0383980,-118.4675250,,,,,,0
1451,2906,COLORADO WB & CENTINELA FS,COLORADO AVE & FRANKLIN ST,34.0357800,-118.4649330,,,,,,0
1452,2907,COLORADO WB & STANFORD NS,COLORADO AVE & STANFORD ST,34.0337640,-118.4673950,,,,,,0
1453,2908,STEWART SB & NEBRASKA NS,STEWART ST & PENNSYLVANIA AVE,34.0302670,-118.4658380,,,,,,0
1454,2909,OLYMPIC WB & EXPO BIKE PATH FS,OLYMPIC BLVD & PENNSYLVANIA AVE,34.0266320,-118.4735970,,,,,,0
1455,2910,20TH SB & OLYMPIC FS,20TH ST & OLYMPIC BLVD,34.0239910,-118.4745950,,,,,,0
1456,2911,23RD SB & OCEAN PARK FS,23RD ST & PICO BLVD,34.0148200,-118.4615170,,,,,,0
1457,2912,23RD SB & ASHLAND NS,23RD ST & ASHLAND AVE,34.0129700,-118.4600300,,,,,,0
1458,2913,WALGROVE SB & ROSE NS,WALGROVE AVE & ROSE AVE,34.0082890,-118.4548400,,,,,,0
1460,2915,WALGROVE SB & PALMS FS,WALGROVE AVE & MORNINGSIDE WAY,34.0031580,-118.4509250,,,,,,0
1462,2921,VENICE EB & WALGROVE FS,VENICE BLVD & WALGROVE AVE,33.9973120,-118.4460170,,,,,,0
1463,2919,WADE SB & VENICE FS,WADE ST & VENICE BLVD,34.0010090,-118.4377460,,,,,,0
1464,2920,WADE SB & MITCHELL FS,WADE ST & MITCHELL AVE,33.9977730,-118.4352320,,,,,,0
1465,2922,WASHINGTON WB & BEETHOVEN NS,W WASHINGTON BLVD & BEETHOVEN ST,33.9952910,-118.4382160,,,,,,0
1466,2923,WASHINGTON WB & REDWOOD NS,W WASHINGTON BLVD & REDWOOD AVE,33.9932550,-118.4422800,,,,,,0
1467,2924,GLENCOE SB & BEACH FS,GLENCOE AVE & BEACH AVE,33.9910600,-118.4439660,,,,,,0
1469,2926,GLENCOE SB & MAXELLA NS,GLENCOE AVE & MAXELLA AVE,33.9872710,-118.4403930,,,,,,0
1470,2927,MINDANAO WB & GLENCOE FS,MINDANAO WAY & PRIVATE RD,33.9848940,-118.4375970,,,,,,0
1471,2942,17TH SB & COLORADO FS (17th St/SMC Station),17TH ST & COLORADO AVE,34.0233840,-118.4794150,,,,,,0
1483,2929,7TH NB & BROADWAY NS,7TH AVE & BROADWAY CT,33.9960600,-118.4654360,,,,,,0
1485,2932,4TH NB & ROSE FS,4TH AVE & 4TH ST,33.9979680,-118.4754840,,,,,,0
1486,2933,4TH NB & PIER FS,4TH ST & PIER AVE,34.0007470,-118.4782390,,,,,,0
1487,2934,LINCOLN NB & SANTA MONICA FS,LINCOLN BLVD & SANTA MONICA BLVD,34.0198560,-118.4917120,,,,,,0
1488,2935,LINCOLN SB & SANTA MOINCA NS,LINCOLN BLVD & SANTA MONICA BLVD,34.0199360,-118.4919300,,,,,,0
1489,2936,4TH SB & ASHLAND NS,4TH ST & ASHLAND AVE,34.0012470,-118.4788620,,,,,,0
1490,2937,4TH SB & ROSE NS,4TH AVE & ROSE AVE,33.9976020,-118.4752220,,,,,,0
1492,2939,7TH SB & SUNSET FS,7TH AVE & SUNSET AVE,33.9986420,-118.4681570,,,,,,0
1493,2940,7TH SB & BROADWAY FS,7TH AVE & BROADWAY CT,33.9958810,-118.4653810,,,,,,0
